IdBiciMad,numPlaces,longitude,latitude,PostalAddress
001 a,30,-3.701998,40.4171107, CALLE  DE ALCALA  2
001 b,30,-3.7015636,40.4172132, CALLE  DE ALCALA  6
2,24,-3.7056739,40.42058, CALLE  DE MIGUEL MOYA  1
3,18,-3.7072122,40.4303224, PLAZA  DEL CONDE DEL VALLE DE SUCHIL  2
4,24,-3.7026739,40.4285905, CALLE  DE MANUELA MALASAÑA  3
5,27,-3.7020743,40.428362, CALLE  DE FUENCARRAL  106
6,24,-3.6984093,40.4241633, CALLE  DE HORTALEZA  63
7,21,-3.6977399,40.4252161, CALLE  DE HORTALEZA  75
8,24,-3.6953067,40.4277143, PLAZA  DE ALONSO MARTINEZ  6
9,24,-3.7094093,40.4156134, PLAZA  DE SAN MIGUEL  9
10,24,-3.6920816,40.4254027, CALLE  DEL MARQUES DE LA ENSENADA  16
11,24,-3.7036192,40.4270517, CALLE  DE SAN ANDRES  20
12,24,-3.7062202,40.4285271, CALLE  DE SAN BERNARDO  87
13,24,-3.7104727,40.4273652, CALLE  DEL CONDE DUQUE  22
14,24,-3.7133768,40.4259913, CALLE  DE VENTURA RODRIGUEZ  1
15,21,-3.7073611,40.4262937, CALLE  DEL NORTE  10
16,21,-3.7074955,40.4229421, CALLE  DE SAN BERNARDO  22
17,24,-3.7041859,40.4231675, PLAZA  DE CARLOS CAMBRONERO  2
18,24,-3.6995679,40.4209206, PLAZA  DE PEDRO ZEROLO  1
19,24,-3.6953951,40.4218997, CALLE  DE PRIM  4
20,24,-3.6952095,40.4191989, CALLE  DE ALCALA  49
020 ampliacion,6,-3.6952901,40.4191858, CALLE  DE ALCALA  49
22,24,-3.7064995,40.4201452, CALLE  DE JACOMETREZO  1
23,24,-3.7082901,40.4202137, PLAZA  DE SANTO DOMINGO  S/N
24,24,-3.7105866,40.417906, CALLE  DE CARLOS III  1
025 a,24,-3.7059978,40.4173416, PLAZA  DEL CELENQUE  1
025 b,24,-3.7060243,40.4172593, PLAZA  DEL CELENQUE  1
26,24,-3.6945421,40.4238308, PLAZA  DE LAS SALESAS  8
27,27,-3.6955803,40.4132831, CALLE  DE JESUS  frente 6
28,24,-3.6983662,40.4180695, CALLE  DE ALCALA  26
29,24,-3.6958008,40.416244, CALLE  DEL MARQUES DE CUBAS  25
30,27,-3.7115428,40.4193355, CALLE  DE PAVIA  6
31,27,-3.706625,40.4163446, CALLE MAYOR  18
32,18,-3.7061355,40.4148511, PLAZA  DE LA PROVINCIA  1
33,21,-3.7032096,40.4164757, CALLE  DE LAS CARRETAS  3
34,24,-3.7035044,40.4144117, PLAZA  DE JACINTO BENAVENTE  S/N
35,24,-3.7103676,40.4141792, PLAZA  DEL CORDON  1
36,24,-3.711764,40.4168229, PLAZA  DE RAMALES  5
37,24,-3.7141234,40.4108606, PLAZA  DE SAN FRANCISCO  5
38,24,-3.7114443,40.4112961, CARRERA  DE SAN FRANCISCO  1
39,27,-3.7090043,40.4112662, PLAZA  DE LA CEBADA  16
40,24,-3.7047463,40.4137865, CALLE  DEL CONDE DE ROMANONES  2
41,18,-3.6989898,40.412228, CALLE  DE ATOCHA  56
42,24,-3.6982294,40.4107714, CALLE  DE SANTA ISABEL  32
43,24,-3.7025446,40.4100889, CALLE  DE LAVAPIES  36
44,21,-3.7039138,40.4098162, CALLE  DEL MESON DE PAREDES  35
45,21,-3.7111381,40.4069486, GLORIETA  DE LA PUERTA DE TOLEDO  1
46,24,-3.7071178,40.4054496, CALLE  DE LA RIBERA DE CURTIDORES  28
47,24,-3.702755,40.4046233, GLORIETA  DE EMBAJADORES  7 B
48,24,-3.7020997,40.4054473, GLORIETA  DE EMBAJADORES  2
49,24,-3.6992427,40.4060497, RONDA  DE ATOCHA  36
50,24,-3.69322,40.4083102, CALLE  DE SANTA ISABEL  57
51,27,-3.6935934,40.4077234, PLAZA  DEL EMPERADOR CARLOS V  7
52,24,-3.7007838,40.4145181, PLAZA  DE SANTA ANA  9
53,24,-3.7007295,40.4082802, CALLE  DE VALENCIA  frente 2
54,21,-3.7003435,40.4266233, CALLE  DE BARCELO  7
55,24,-3.7019295,40.4240716, PLAZA  DE SAN ILDEFONSO  8
56,24,-3.7032875,40.418484, PLAZA  DEL CARMEN  1
57,24,-3.7128181,40.4296363, CALLE  DE SANTA CRUZ DE MARCENADO  24
58,24,-3.6979458,40.4222601, CALLE  DE AUGUSTO FIGUEROA  33
59,21,-3.7041167,40.4254802, CALLE  DEL ESPIRITU SANTO  30
60,24,-3.6881994,40.4194508, PLAZA  DE LA INDEPENDENCIA  7
61,24,-3.675206,40.4214379, CALLE  DE O'DONNELL  30
62,24,-3.6724223,40.4212986, CALLE  DE O'DONNELL  48
63,24,-3.6706508,40.4178926, CALLE  DE IBIZA  64
65,24,-3.6893825,40.4166859, CALLE  DE ANTONIO MAURA  15
67,24,-3.6931349,40.410829, CALLE  DE ALMADEN  28
68,21,-3.6911649,40.412781, CALLE  DE ESPALTER  1
69,27,-3.6888669,40.4100609, CALLE  DE ALFONSO XII  54
70,24,-3.6777994,40.4152203, AVENIDA  DE MENENDEZ PELAYO  frente 63
71,24,-3.674021,40.4160054, CALLE  DEL DOCE DE OCTUBRE  28
72,24,-3.669623,40.415721, CALLE  DEL DOCTOR ESQUERDO  62
73,24,-3.669099,40.411463, PLAZA  DE LOS ASTROS  S/N
74,24,-3.6765768,40.4117601, AVENIDA  DE MENENDEZ PELAYO  S/N
75,24,-3.6784149,40.4083387, AVENIDA  DE MENENDEZ PELAYO  S/N
76,24,-3.6751544,40.4072851, AVENIDA  DEL MEDITERRANEO  19
77,22,-3.6707742,40.4063347, PLAZA  DEL CONDE DE CASAL  8
78,24,-3.6745783,40.4005704, CALLE  DEL CERRO DE LA PLATA  2
79,24,-3.6805524,40.4050482, AVENIDA  DE MENENDEZ PELAYO  38
080 a,24,-3.6904816,40.4074122, AVENIDA  DE LA CIUDAD DE BARCELONA  S/N
080 b,27,-3.6907238,40.407626, AVENIDA  DE LA CIUDAD DE BARCELONA  S/N
81,24,-3.6919663,40.4095758, CALLE  DE CLAUDIO MOYANO  S/N
82,24,-3.669683,40.4084793, CALLE  DE LA LIRA  frente 2
83,24,-3.6745339,40.4132589, CALLE  DE PIO BAROJA  8 B
84,24,-3.6726923,40.4033695, CALLE  DEL DOCTOR ESQUERDO  191
85,27,-3.6799299,40.4211415, AVENIDA  DE MENENDEZ PELAYO  frente 9
86,21,-3.6933298,40.4185779, PASEO  DEL PRADO  S/N
87,24,-3.6835631,40.4276717, CALLE  DE AYALA  44
88,24,-3.6837471,40.4312077, CALLE  DE VELAZQUEZ  73
89,24,-3.6751716,40.4272628, CALLE  DE AYALA  102
90,24,-3.6837297,40.4250878, CALLE  DE GOYA  18
090 ampliacion,6,-3.6835613,40.4250791, CALLE  DE GOYA  20
91,24,-3.6788203,40.4261113, CALLE  DE HERMOSILLA  73
92,24,-3.6864821,40.4262237, CALLE  DE CLAUDIO COELLO  45
93,24,-3.6894124,40.4256984, CALLE  DE GOYA  3
94,21,-3.6907044,40.4233686, PASEO  DE RECOLETOS  22
95,24,-3.6869914,40.4226634, CALLE  DE CLAUDIO COELLO  19
96,27,-3.6820471,40.4220516, CALLE  DE ALCALA  111
97,27,-3.6801515,40.4224846, AVENIDA  DE MENENDEZ PELAYO  1
98,24,-3.6754079,40.4241911, AVENIDA  DE FELIPE II  5
99,24,-3.6739638,40.4261048, CALLE  DE ALCANTARA  2
100,24,-3.6738777,40.4247843, CALLE  DE GOYA  99
101,24,-3.6694246,40.4231223, CALLE  DE JORGE JUAN  131
102,24,-3.6840806,40.4211552, CALLE  DE ALCALA  95
103,24,-3.6865351,40.4303733, CALLE  DE JOSE ORTEGA Y GASSET  4
104,21,-3.6895792,40.4267658, PASEO  DE LA CASTELLANA  4
105,24,-3.6874745,40.4270684, CALLE  DE SERRANO  46
106 a,18,-3.6878868,40.4248642, CALLE  DE SERRANO  32
106 b,18,-3.6878604,40.4250085, CALLE  DE SERRANO  34
107,24,-3.6884243,40.4215952, CALLE  DE SERRANO  8
108,27,-3.670653,40.4274425, CALLE  DE LAS MARTIRES CONCEPCIONISTAS  2
109,24,-3.6815253,40.4301281, CALLE  DE JOSE ORTEGA Y GASSET  32
110,24,-3.7201316,40.4347654, PASEO  DE MORET  S/N
111 a,24,-3.7174896,40.4335742, CALLE  DEL ARCIPRESTE DE HITA  8
111 b,24,-3.7177783,40.433982, CALLE  DEL ARCIPRESTE DE HITA  12
112,24,-3.7248727,40.4326267, PASEO  DE MORET  11
113,24,-3.7207145,40.4277472, PASEO  DEL PINTOR ROSALES  frente 38
114,24,-3.7174151,40.4278211, CALLE  DE QUINTANA  13
115,24,-3.7169626,40.4253802, PLAZA  DEL MARQUES DE CERRALBO  S/N
116 a,24,-3.7117588,40.4240632, PLAZA  DE ESPAÑA  S/N
116 b,24,-3.7118457,40.4241889, PLAZA  DE ESPAÑA  S/N
117,24,-3.7189152,40.4309046, CALLE  DE ALTAMIRANO  24
118,24,-3.688135,40.4007959, CALLE  DE JUAN MARTIN EL EMPECINADO  16
119,24,-3.6865777,40.4014567, CALLE  DE MENDEZ ALVARO  7
120,24,-3.6947791,40.4030362, CALLE  DE PALOS DE LA FRONTERA  frente 27
121,24,-3.6986046,40.4018356, PASEO  DE SANTA MARIA DE LA CABEZA  58
122,24,-3.6962626,40.429524, CALLE  DE SANTA ENGRACIA  16
123,24,-3.7134685,40.4306386, CALLE  DE GUZMAN EL BUENO  2
124,24,-3.6993182,40.4308173, CALLE  DE MANUEL SILVELA  18
125,24,-3.6948316,40.4353128, CALLE  DE FERNANDEZ DE LA HOZ  29
126,24,-3.7017424,40.4345672, CALLE  DEL GENERAL ALVAREZ DE CASTRO  4
127,24,-3.7083987,40.4339055, CALLE  DE FERNANDO EL CATOLICO  19
128,24,-3.7155506,40.4390329, CALLE  DE CEA BERMUDEZ  59
128 ampliacion,3,-3.7156915,40.4390391, CALLE  DE CEA BERMUDEZ  59
129,24,-3.6982818,40.4384684, CALLE  DE JOSE ABASCAL  33
130,20,-3.7017071,40.4417195, CALLE  DE SANTA ENGRACIA  129
131,24,-3.704022,40.4417543, CALLE  DE BRAVO MURILLO  44
132,24,-3.7035911,40.4463889, CALLE  DE SANTA ENGRACIA  168
133,24,-3.7000292,40.4471673, CALLE  DE DULCINEA  3
134,24,-3.6955114,40.444027, CALLE  DE MARIA DE GUZMAN  58
135,24,-3.6928901,40.4414845, PLAZA  DE SAN JUAN DE LA CRUZ  S/N
136,24,-3.6908127,40.4452833, PASEO  DE LA CASTELLANA  106
137,24,-3.6852925,40.4454958, PLAZA  DE LA REPUBLICA ARGENTINA  6
138,24,-3.6915818,40.4456884, PASEO  DE LA CASTELLANA  frente 108
139,24,-3.6904495,40.4393558, CALLE  DE JOSE GUTIERREZ ABASCAL  S/N
140,24,-3.6829045,40.438628, CALLE  DE VELAZQUEZ  134
140 ampliación,3,-3.6829127,40.4385198, CALLE  DE VELAZQUEZ  134
141,12,-3.6892902,40.4354253, PASEO  DE LA CASTELLANA  43
142,24,-3.6880402,40.4335262, PASEO  DE LA CASTELLANA  S/N
143,24,-3.6782355,40.434616, CALLE  DE DIEGO DE LEON  54
144,24,-3.6754628,40.4323192, CALLE  DE JUAN BRAVO  50
145,24,-3.671401,40.4297717, CALLE  DE JOSE ORTEGA Y GASSET  87
146,18,-3.67879,40.4442406, CALLE  DE MARIA FRANCISCA  1
147,24,-3.6795811,40.4483353, AVENIDA  DEL DOCTOR ARCE  45
148,24,-3.6816993,40.4510203, CALLE  DE SERRANO  210
149,24,-3.6878512,40.4498448, PASEO  DE LA HABANA  42
150,24,-3.690541,40.4491125, PASEO  DE LA CASTELLANA  S/N
151,24,-3.6952023,40.4488617, CALLE  DE ORENSE  10
152,24,-3.6989497,40.4527163, AVENIDA  DEL GENERAL PERON  frente 4
153,24,-3.6930894,40.45235, AVENIDA  DEL GENERAL PERON  frente 36
154,24,-3.6946736,40.4547769, CALLE  DE ORENSE  36
155,24,-3.700864,40.4572863, CALLE  DE SAN GERMÁN  55
156,24,-3.6913229,40.4592406, CALLE  DE SOR ANGELA DE LA CRUZ  2
157,24,-3.6893305,40.459282, PASEO  DE LA CASTELLANA  S/N
158,24,-3.6847049,40.45862, AVENIDA  DE ALBERTO ALCOCER  22 A
159,24,-3.6837348,40.4542549, PASEO  DE LA HABANA  63
160,24,-3.6766176,40.4571995, CALLE  DE COLOMBIA  7
161,24,-3.7220624,40.4221372, PASEO  DE LA FLORIDA  8
161 ampliacion,3,-3.7219659,40.4220566, PASEO  DE LA FLORIDA  6
162,24,-3.7107559,40.4035176, PASEO  DE LOS OLMOS  28
163,21,-3.7064372,40.4036349, PASEO  DE LA  0 ESPERANZA 0833333333333333
164,24,-3.6944851,40.3971366, PASEO  DE LAS DELICIAS  94
165,27,-3.6976134,40.3928841, PASEO  DE LA CHOPERA  frente 49
166,24,-3.7133382,40.4139396, CALLE  DE SEGOVIA  21
167,24,-3.7176456,40.4137331, CALLE  DE SEGOVIA  47 A
168,24,-3.6959159,40.4045828, PASEO  DE SANTA MARIA DE LA CABEZA  frente 32
169,24,-3.713846,40.401578, CALLE  DE TOLEDO  181
170,24,-3.704403,40.4011039, PASEO  DE LA ESPERANZA  21
171,24,-3.6984459,40.3997626, CALLE  DE EMBAJADORES  97
172,24,-3.6935448,40.4008683, CALLE  DE BUSTAMANTE  1
173,24,-3.7023615,40.3981757, PASEO  DE LA ESPERANZA  59
174,27,-3.7063771,40.397417, PASEO  DE LAS YESERIAS  8
175,21,-3.6983033,40.3962687, CALLE  DE JAIME EL CONQUISTADOR  30
176,24,-3.6936302,40.3942411, CALLE  DE ALICANTE  3
177,24,-3.694087,40.3915019, CALLE  DE BOLIVAR  3
178,24,-3.6788939,40.4030242, CALLE  DE LEON GIL DE PALACIO  1
179,24,-3.6690602,40.3979341, AUTOVIA M-30  S/N
180,24,-3.6759244,40.3941252, CALLE  DE LA RETAMA  5
181,27,-3.67664,40.4181748, CALLE  DE IBIZA  18
182,24,-3.6655023,40.4187145, CALLE  DEL ALCALDE SAINZ DE BARANDA  90
183,24,-3.6694506,40.4256358, CALLE  DE HERMOSILLA  135
184,24,-3.6653095,40.4260023, PASEO  DEL MARQUES DE ZAFRA  24
185,24,-3.661533,40.4250682, GLORIETA  DEL MARQUES DE ZAFRA  frente 4
186,24,-3.6782783,40.429069, CALLE  DEL GENERAL PARDIÑAS  56
187,24,-3.6638407,40.4301353, CALLE  DE ALEJANDRO GONZALEZ  1
188,27,-3.6589062,40.4311658, AVENIDA  DE DAROCA  2
189,24,-3.6555431,40.4350206, CALLE  DE LA VIRGEN DE LA ALEGRIA  18
190,24,-3.6834711,40.4343761, CALLE  DE VELAZQUEZ  91
191,18,-3.6740365,40.4346168, CALLE  DE ALONSO HEREDIA  1
192,27,-3.6714315,40.431855, AVENIDA  DE LOS TOREROS  3
193,24,-3.665644,40.4325204, AVENIDA  DE LOS TOREROS  47
194,24,-3.6771947,40.4371986, CALLE  DE FRANCISCO SILVELA  86
195,24,-3.6754913,40.4392483, CALLE  DEL PADRE INDALECIO HERNANDEZ  1
196,24,-3.6750918,40.4440957, CALLE  DE SUERO DE QUIÑONES  2
197,24,-3.6780252,40.4515501, AVENIDA  DE CONCHA ESPINA  S/N
198,24,-3.6915713,40.4331172, GLORIETA  DE RUBEN DARIO  2
199,27,-3.7148406,40.4343244, CALLE  DE FERNANDO EL CATOLICO  61
200,24,-3.704671,40.4336617, GLORIETA  DE QUEVEDO  frente 4
201,24,-3.7038161,40.4387323, CALLE  DE JOSE ABASCAL  frente al 2
202,24,-3.7080969,40.4411686, CALLE  DE SANTANDER  S/N
203,24,-3.7144239,40.4417547, CALLE  DEL GENERAL AMPUDIA  2
204,24,-3.7041702,40.4476606, CALLE  DEL DOCTOR SANTERO  1
205,24,-3.7033408,40.4535024, CALLE  DE NAVARRA  1
206,24,-3.6990499,40.4607994, CALLE  DEL MARQUES DE VIANA  5
207,18,-3.6973991,40.4630291, CALLE  DE LAS AZUCENAS  1
208,24,-3.6886852,40.4665125, PASEO  DE LA CASTELLANA  S/N
209,24,-3.6887875,40.4656872, PLAZA  DE CASTILLA  9
210,27,-3.702631,40.4197538, CALLE  DE LAS TRES CRUCES  9
211,24,-3.7025369,40.4206168, CALLE  DEL DESENGAÑO  3
212,24,-3.7165313,40.3981605, GLORIETA  DEL MARQUES DE VADILLO  9
213,24,-3.7001575,40.3889363, CALLE  DE ANTONIO LOPEZ  129
214,24,-3.6569597,40.4434012, CALLE  DE LA CONDESA DE VENADITO  2
215,24,-3.6409697,40.4296903, CALLE  DE GUTIERRE DE CETINA  77
216,24,-3.7288948,40.4140528, PLAZA  DE LA PUERTA DEL ANGEL  3
217,24,-3.6891094,40.4810028, CALLE  DE PEDRO RICO  frente al 4
218,24,-3.6573999,40.4105519, CALLE  DEL CAMINO DE LOS VINATEROS  28
219,24,-3.6467783,40.4083961, CALLE  DEL CAMINO DE LOS VINATEROS  108
220,24,-3.6514264,40.4061548, CALLE  DEL ARROYO DE LAS PILILLAS  frente al 4
221,24,-3.6346859,40.4004579, CALLE  DE LA HACIENDA DE PAVONES  346
222,24,-3.7026887,40.3917816, CALLE  DE EUGENIO CAXES  5
223,24,-3.7245226,40.4064341, PASEO  DE LA ERMITA DEL SANTO  48
224,24,-3.7288262,40.408882, CALLE  DE CARAMUEL  frente al 52
225,24,-3.6601933,40.4026388, CALLE  DE LA SIERRA TOLEDANA  33
226,24,-3.6606789,40.3991986, CAMINO  DE VALDERRIBAS  94
227,24,-3.6661421,40.3940355, CALLE  DEL ARROYO DEL OLIVAR  4
228,24,-3.7080437,40.3943842, CALLE  DE SAN DELFIN  9
229,24,-3.6486507,40.4370782, CALLE  DE JOSE DEL HIERRO  5
230,24,-3.6491034,40.4436986, CALLE  DE CARLOTA O'NEILL  32
231,24,-3.6558172,40.439748, CALLE  DE LOS DERECHOS HUMANOS  14
232,24,-3.6485701,40.4328362, CALLE  DE JOSE MARIA PEREDA  1
233,24,-3.655633,40.4229144, AVENIDA  DEL MARQUES DE CORBERA  12
234,24,-3.651125,40.426163, AVENIDA  DEL MARQUES DE CORBERA  52
235,24,-3.6911834,40.3889853, CALLE  DEL SODIO  1 B
236,24,-3.7171449,40.4074236, PASEO IMPERIAL  20
237,24,-3.7105146,40.451395, CALLE  DE FRANCISCO BALSEIRO  S/N
238,24,-3.6932474,40.4562183, CALLE  DE SAN GERMÁN  5
239,24,-3.7079276,40.4567345, CALLE  DE FRANCOS RODRIGUEZ  62
240,24,-3.6609886,40.4367138, AVENIDA  DE BRASILIA  frente al 9
241,24,-3.6677796,40.4377568, AVENIDA  DE CAMILO JOSE CELA  23
242,24,-3.6629058,40.4394662, AVENIDA  DE BRUSELAS  56
243,24,-3.6700894,40.4351648, CALLE  DE CARTAGENA  38
244,24,-3.7175468,40.4398513, CALLE  DE ISAAC PERAL  44
245,24,-3.7101726,40.4364656, CALLE  DE GALILEO  63
246,24,-3.699252,40.436026, CALLE  DE SANTA ENGRACIA  87
247,24,-3.692843,40.4383672, CALLE  DE ZURBANO  90
248,24,-3.6878414,40.4743243, CALLE  DE SINESIO DELGADO  2
249,24,-3.6852959,40.4794159, PASEO  DE LA CASTELLANA  frente al 298
250,24,-3.6861,40.4408151, CALLE  DE SERRANO  113 b
251,24,-3.6668532,40.444183, CALLE  DE SANTA HORTENSIA  31
252,24,-3.6839094,40.4715645, CALLE  DE RODRIGUEZ JAEN  S/N
253,24,-3.688443,40.455606, CALLE  DEL DOCTOR FLEMING  7
254,24,-3.6765549,40.4610436, AVENIDA  DE PIO XII  3
255,24,-3.6851815,40.4637286, CALLE  DEL GENERAL LOPEZ POZAS  2
256,24,-3.7138353,40.4463599, CALLE  DE BEATRIZ DE BOBADILLA  frente al 2
257,24,-3.73029,40.438804, AVENIDA  DE JUAN DE HERRERA  1
258,24,-3.7273004,40.449019, AVENIDA COMPLUTENSE  frente al 14
259,24,-3.727031,40.4444176, PLAZA  DE RAMON Y CAJAL  S/N
260,24,-3.7272637,40.4482316, CALLE  DE JOSE ANTONIO NOVAIS  S/N
261,24,-3.7292576,40.4505032, AVENIDA COMPLUTENSE  frente al 7
