COD_TIPO_DATO;TIPO_DATO;IDENTIFICADOR_MINT;COD_ELEMENTO;COD_NDP;DIRECCION_COMPLETA;DIRECCION AUXILIAR;CENTRO;COD_VIAL;CLASE_VIAL;PARTICULAS_VIAL;NOMBRE_VIAL;TIPO_NÚMERO;NÚMERO;COD_BARRIO;BARRIO;COD_DISTRITO;DISTRITO;UTMX;UTMY;LATITUD;LONGITUD;HORARIO;OBSERVACIONES;DIRECCION_HORARIO;;;
;punto limpio de proximidad;;;;Calle  Galileo, 39 ;;Centro Cultural Galileo *;;Calle;;Galileo;número;39;;;07;Chamberí;439737,14;4476140,05;40.43372;-3.7105;Lunes a Viernes 8:30 a 21:30. Sábados y Domingos 9:30 a 20:30.;www.madrid.es/puntoslimpios;Calle  Galileo, 39  (Lunes a Viernes 8:30 a 21:30. Sábados y Domingos 9:30 a 20:30.);;;
;punto limpio de proximidad;;;;Calle  Concejo de Teverga, 1 ;;Centro Cultural Lope de Vega *;;Calle;;Concejo de Teverga;número;1;;;13;Puente Vallecas;442995,89;4470873,96;40.38651;-3.67161;Lunes a Viernes 9:00 a 13:30 y de 17:00 a 19:00.;www.madrid.es/puntoslimpios;Calle  Concejo de Teverga, 1  (Lunes a Viernes 9:00 a 13:30 y de 17:00 a 19:00.);;;
;punto limpio de proximidad;;;;Calle  Princesa de Éboli, 29 ;;Centro Cultural Sanchinarro *;;Calle;;Princesa de Éboli;número;29;;;16;Hortaleza;444462,27;4482376,5;40.49023;-3.65534;Lunes a Viernes 9:00 a 22:00. Sábados y Domingos 10:00 a 22:00.;www.madrid.es/puntoslimpios;Calle  Princesa de Éboli, 29  (Lunes a Viernes 9:00 a 22:00. Sábados y Domingos 10:00 a 22:00.);;;
;punto limpio de proximidad;;;;Calle  Monseñor Oscar Romero, 41 ;;Centro Deportivo Municipal La Mina *;;Calle;;Monseñor Oscar Romero;número;41;;;11;Carabanchel;436628,76;4470466,57;40.38238;-3.74658;Lunes a Viernes 9:00 a 20:30. Sábados y Domingos  9:00 a 14:30.;www.madrid.es/puntoslimpios;Calle  Monseñor Oscar Romero, 41  (Lunes a Viernes 9:00 a 20:30. Sábados y Domingos  9:00 a 14:30.);;;
;punto limpio de proximidad;;;;Calle  Puerto de Reinosa, 2 ;;Instalación Deportiva Básica Virgen de la Torre *;;Calle;;Puerto de Reinosa;número;2;;;18;Villa de Vallecas;447619,64;4469935,59;40.37836;-3.61706;Lunes a Viernes 17:00 a 21:00. Sábados y Domingos 9:00 a 18:00.;www.madrid.es/puntoslimpios;Calle  Puerto de Reinosa, 2  (Lunes a Viernes 17:00 a 21:00. Sábados y Domingos 9:00 a 18:00.);;;
;punto limpio de proximidad;;;;Plaza  Moncloa, 1 ;;Junta Municipal de Distrito de Moncloa-Aravaca *;;Plaza;;Moncloa;número;1;;;09;Moncloa-Aravaca;439054,11;4476324,29;40.43533;-3.71857;Lunes a Jueves 8:30 a 15:00. Viernes 8:30 a 14:00. Sábados y Domingos cerrado;www.madrid.es/puntoslimpios;Plaza  Moncloa, 1  (Lunes a Jueves 8:30 a 15:00. Viernes 8:30 a 14:00. Sábados y Domingos cerrado);;;
;punto limpio de proximidad;;;;Calle  Alameda, 15 ;;Medialab-Prado *;;Calle;;Alameda;número;15;;;01;Centro;441152,05;4473553,45;40.41052;-3.69358;Lunes 16:00 a 21:00. Martes a Viernes 10:00 a 21:00. Sábados 11:00 a 21:00.;www.madrid.es/puntoslimpios;Calle  Alameda, 15  (Lunes 16:00 a 21:00. Martes a Viernes 10:00 a 21:00. Sábados 11:00 a 21:00.);;;
;punto limpio de proximidad;;;;Calle  Barceló, 4 ;;Parque Jardines Arquitecto Ribera *;;Calle;;Barceló;número;4;;;01;Centro;440719,17;4475360,72;40.42677;-3.69885;Todos los días, 24 horas. Situado en vía pública;www.madrid.es/puntoslimpios;Calle  Barceló, 4  (Todos los días, 24 horas. Situado en vía pública);;;
;punto limpio de proximidad;;;;Calle  Zarza, 20 ;;Oficina auxiliar Atención a la Ciudadanía de Aravaca *;;Calle;;Zarza;número;20;;;09;Moncloa-Aravaca;433370,48;4478937;40.45843;-3.78585;Lunes a Viernes 8:30 a 14:00. Cerrado el mes de agosto, los sábados y los días 24 y 31 de diciembre;www.madrid.es/puntoslimpios;Calle  Zarza, 20  (Lunes a Viernes 8:30 a 14:00. Cerrado el mes de agosto, los sábados y los días 24 y 31 de diciembre);;;
;punto limpio de proximidad;;;;Calle  Casino, 3 ;;Parque Casino de la Reina *;;Calle;;Casino;número;3;;;01;Centro;440177,22;4473143,78;40.40676;-3.70503;Lunes a Viernes 8:30 a 21:30. Sábados 10:00 a 15:00 y de 16:00 a 21:30.;www.madrid.es/puntoslimpios;Calle  Casino, 3  (Lunes a Viernes 8:30 a 21:30. Sábados 10:00 a 15:00 y de 16:00 a 21:30.);;;
;punto limpio de proximidad;;;;Paseo  de la Chopera, 10 ;;Junta Municipal de Distrito de Arganzuela. Casa del Reloj;;Paseo;;de la Chopera;número;10;;;02;Arganzuela;440716,19;4471658,16;40.39402;-3.69909;Lunes a Viernes 9:00 a 14:00;www.madrid.es/puntoslimpios;Paseo  de la Chopera, 10  (Lunes a Viernes 9:00 a 14:00);;;
;punto limpio de proximidad;;;;Calle  Canarias, 17 ;;Centro Dotacional Integral de Arganzuela.;;Calle;;Canarias;número;17;;;02;Arganzuela;440979,75;4472617,96;40.402921;-3.695619;Lunes a Sabado 9:00 a 21:00. Agosto cerrado;www.madrid.es/puntoslimpios;Calle  Canarias, 17  (Lunes a Sabado 9:00 a 21:00. Agosto cerrado);;;
;punto limpio de proximidad;;;;Plaza  Daoiz y Velarde, 1 ;;Junta Municipal Retiro - (fachada de Centro Deportivo);;Plaza;;Daoiz y Velarde;número;1;;;3;Retiro;442514.45;4472633.34;40.40232649;-3.677440719;Todos los días, 24 horas. Situado en vía pública;www.madrid.es/puntoslimpios;Plaza  Daoiz y Velarde, 1  (Todos los días, 24 horas. Situado en vía pública);;;
;punto limpio de proximidad;;;;Calle   Bravo Murillo, 376 ;;Centro Deportivo Triángulo de Oro;;Calle ;;Bravo Murillo;número;376;;;6;Tetuán;441294.37;4479609.24;40.46508352;-3.692462181;Todos los días, 24 horas. Situado en vía pública;www.madrid.es/puntoslimpios;Calle   Bravo Murillo, 376  (Todos los días, 24 horas. Situado en vía pública);;;
;punto limpio de proximidad;;;;Plaza  Donoso, 5 ;;Centro Cultural Eduardo Úrkulo;;Plaza;;Donoso;número;5;;;06;Tetuán;440862.56;4480048.22;40.4690074092475;-3.69759615356091;Mañanas, de lunes a viernes, de 9:30 a 13:30 y tardes, de lunes a jueves 16:30 a 18 horas.  Julio, de lunes a viernes, de 9:30 a 13:30 horas;www.madrid.es/puntoslimpios;;;;
;punto limpio de proximidad;;;;Acceso  Colonia Marconi, 4 ;;Centro Cultural Marconi;;Acceso;;Colonia Marconi;número;4;;;17;Villaverde;440472.62;4465148.60;40.3347563494204;-3.70080230631977;lunes a jueves de 9:30 a 13:30 y de 16:30 a 19:30 y viernes de 9:30 a 13:30 horas.  Durante el mes de  julio el horario será de 9 a 14 horas, de lunes a viernes.;www.madrid.es/puntoslimpios;;;;
;punto limpio de proximidad;;;;Avendia  Rafaela Ybarra, 41 ;;Junta Municipal Usera;;Avendia;;Rafaela Ybarra;número;41;;;12;Usera;439660.68;4470442.34;40.3823869600974;-3.71086110228679;Todos los días, 24 horas. Situado en vía pública;www.madrid.es/puntoslimpios;;;;
;punto limpio de proximidad;;;;Calle  Catorce Olivas, 1 ;;CDM Francisco Fernández Ochoa;;Calle;;Catorce Olivas;número;1;;;11;Carabanchel;437098.04;4468624.91;40.3658251906701;-3.7408700321201;De lunes a viernes: de 8 a 21,30 horas.     Sábados, domingos y festivos: de 9 a 20 horas.;www.madrid.es/puntoslimpios;;;;
;punto limpio de proximidad;;;;Avenida  Monforte de  Lemos, 13 ;;Centro Deportivo Municipal  Vicente del Bosque;;Avenida;;Monforte de  Lemos;número;13;;;08;Fuencarral;441216.13;4481146.42;40.47892553119;-3.69352744882939;  lunes a domingo y festivos, de 8,30 a 20,30 horas. Cerrado  Los días 24, 25 y 31 de diciembre, 1 de enero y 1 de mayo;www.madrid.es/puntoslimpios;;;;
;punto limpio de proximidad;;;;Calle  Pradillo, 33 ;;Centro Deportivo Municipal  de Pradillo;;Calle;;Pradillo;número;33;;;05;Chamartín;443048.99;4477822.76;40.4491122050472;-3.67160665969249;  lunes a viernes: de 8,45 a 20,30 horas. •Sábados y domingos: de 8,45 a 14,15 horas. Festivos y días 24 y 31 de diciembre;www.madrid.es/puntoslimpios;;;;
;punto limpio de proximidad;;;;Avenida  Los Rosales, 133 ;; Centro Cultural  Los Rosales;;Avenida;;Los Rosales;número;133;;;17;Villaverde;442482.98;4466908.64;40.3507528739891;-3.67729494907089;lunes a jueves de 9:30 a 13:30 y de 17 a 19 y viernes de 9:30 a 13:30 horas.  Durante el mes de julio el horario será de 9 a 14 horas.;www.madrid.es/puntoslimpios;;;;
;punto limpio de proximidad;;;;Avenida  Glorietas, 19 ;; Centro Cultural El Pozo del Tío Raimundo;;Avenida;;Glorietas;número;19;;;13;Puente Vallecas;443976.61;4469457.58;40.3738170058399;-3.65993163091511;Lunes a viernes, de 9 a 13:45 y de 17 a 18:45 horas. Agosto cerrado;www.madrid.es/puntoslimpios;;;;
;punto limpio de proximidad;;;;Calle  Moreja, 11 ;; Polideportivo Orcasur;;Calle;;Moreja;número;11;;;12;Usera;440728.52;4468851.13;40.3681291154569;-3.69813374616173;  lunes a viernes, de 8,45 a 20,30 horas •Sábados, domingos y festivos, de 8,45 a 14,30 horas.  Cerrado  mes de agosto y los días 24, 25 y 31 de diciembre, 1 de enero y 1 de mayo;www.madrid.es/puntoslimpios;;;;
;punto limpio de proximidad;;;;Calle  Alcalde Sainz de Baranda, 94 ;;Centro Deportivo Municipal  Torrespaña;;Calle;;Alcalde Sainz de Baranda;número;94;;;04;Salamanca;443945.18;4474719.62;40.4212184130843;-3.66076510878078;lunes a domingo: de 9:00 a 22:00 ;www.madrid.es/puntoslimpios;;;;
;punto limpio de proximidad;;;;Calle  San Román del Valle, 8 ;; Centro Cultural  Antonio Machado;;Calle;;San Román del Valle;número;8;;;20;San Blas;447255.91;4474591.58;40.420281396531;-3.62173039001844;De lunes a viernes, de 10 a 13:30 y de 17 a 18:30 horas. Cerrado  Agosto;www.madrid.es/puntoslimpios;;;;
;punto limpio de proximidad;;;;Calle  Fuentidueña, 6 ;;Centro Deportivo Municipal  Miguel Guillen Prim;;Calle;;Fuentidueña;número;6;;;18;Villa vallecas;447099.98;4469435.96;40.3738263288667;-3.62313999431679;Lunes a viernes, de 9 a 21 horas. •Sábados, domingos y festivos. Cerrado Mes agosto y durante los días 24, 25 y 31 de diciembre, 1 de enero y 1 de mayo.   ;www.madrid.es/puntoslimpios;;;;
;punto limpio de proximidad;;;;Calle  Hierbabuena, 2 ;;Centro Deportivo Municipal  Playa Victoria;;Calle;;Hierbabuena;número;2;;;06;Tetuán;440472.27;4478972.37;40.4592878454263;-3.70209883742551;  lunes a viernes: de 8,30 a 21 horas. •Sábados y festivos: de 9 a 14 horas. Cerrado  Domingos: cerrado Días 24, 25 y 31 de diciembre, 1 de enero y 1 de mayo.;www.madrid.es/puntoslimpios;;;;
;punto limpio de proximidad;;;;Calle  Mar de las Antillas, 2 ;; Parque Huerta de la Salud;;Calle;;Mar de las Antillas;número;2;;;16;Hortaleza;445310.66;4480541.99;40.4737602876232;-3.64517140023869;Todos los días, 24 horas. Situado en vía pública;www.madrid.es/puntoslimpios;;;;
;punto limpio de proximidad;;;;Avenida  Camino De Santiago, 25 ;; Padel y Ténis las Tablas;;Avenida;;Camino De Santiago;número;25;;;08;Fuencarral;442884.93;4483775.52;40.5027260029654;-3.67407733906009;lunes a domingo: de 9:00 a 22:00 ;www.madrid.es/puntoslimpios;;;;
;punto limpio de proximidad;;;;Avenida  Logroño, 179 ;; Centro Cultural Gloria Fuertes;;Avenida;;Logroño;número;179;;;21;Barajas;449666.56;4479054.10;40.4606319003654;-3.59366944399918;De lunes a viernes, de 9 a 14 y de 17 a 19 horas.;www.madrid.es/puntoslimpios;;;;
;punto limpio de proximidad;;;;Calle  Brunete, 1 ;; Instalación Deportiva Municipal Básica Brunete;;Calle;;Brunete;número;1;;;08;Fuencarral;434449.09;4485392.88;40.5166719052394;-3.7737972900086;Todos los días de 9:00 a 22 horas ;www.madrid.es/puntoslimpios;;;;
;punto limpio de proximidad;;;;Calle  Alonso Cano, 10 ;; Mercado Municipal Chamberí;;Calle;;Alonso Cano;número;10;;;07;Chamberí;440810.57;4476411.93;40.4362464567144;-3.69787041961899;De lunes a viernes de 9:30 a 14:30 y de 17:30 a 20:30 horas. Sábado de 9:30 a 14:30 horas.;www.madrid.es/puntoslimpios;;;;
;punto limpio de proximidad;;;;Calle  Esfinge, 35 ;;Centro Municipal de Mayores Canillejas;;Calle;;Esfinge;número;35;;;20;San Blas;448329.56;4477170.10;40.4435776599922;-3.6092848527172;Lunes a viernes: de 9:30 a 14:00 y de 16:00 a 20:30 h.;www.madrid.es/puntoslimpios;;;;
;punto limpio de proximidad;;;;Calle  Francisco Rioja, 10 ;;Centro Deportivo Municipal  Pueblo Nuevo;;Calle;;Francisco Rioja;número;10;;;15;Ciudad Lineal;448329.56;4477170.10;40.4435776599922;-3.6092848527172;De lunes a viernes, de 9 a 20:30 horas (de septiembre a julio). Cerrado Festivos;www.madrid.es/puntoslimpios;;;;
;punto limpio de proximidad;;;;Avenida  Daroca, 54 A ;; CMM Manuel Alexandre;;Avenida;;Daroca;número;54 A;;;15;Ciudad Lineal;445808.41;4475668.26;40.4298877429261;-3.63888382921123;"Invierno: de 9 a 21 horas;  Verano: de 9 a 21 horas";www.madrid.es/puntoslimpios;;;;
;punto limpio de proximidad;;;;Calle  Arroyo Belincoso, 11 ;; Biblioteca Miguel Delibes;;Calle;;Arroyo Belincoso;número;11;;;14;Moratalaz;444505.84;4475623.91;40.4294023357778;-3.65423547760868;Todos los días, 24 horas. Situado en vía pública;www.madrid.es/puntoslimpios;;;;
;punto limpio de proximidad;;;;Calle  Alianza, 4 ;;Centro Deportivo Municipal  Felix Rubio;;Calle;;Alianza;número;4;;;17;Villaverde;444606.01;4473441.99;40.4097530517396;-3.65286457822806;Para saber el horario de apertura de las distintas instalaciones del centro deportivo, les rogamos lo consulten con el propio centro. Cerrado mes de agosto y los días 24, 25 y 31 de diciembre, 1 de enero y 1 de mayo.;www.madrid.es/puntoslimpios;;;;
;punto limpio de proximidad;;;;Calle  Rafael Finat, 47 ;; Centro Municipal La Tercera Ciudad de Mejico;;Calle;;Rafael Finat;número;47;;;10;Latina;441281.51;4467659.97;40.357437590405;-3.69151110059064;Lunes a viernes: de 9 a 21 horas. Fines de semana y festivos: de 10 a 14 horas y de 16 a 21 horas;www.madrid.es/puntoslimpios;;;;
;punto limpio de proximidad;;;;Calle  Camarena, 10 ;; Centro Cultural  Fernando de los Ríos;;Calle;;Camarena;número;10;;;10;Latina;435789.54;4471956.62;40.4628208066151;-3.58746493914505;De lunes a viernes, de 9 a 14 y de 16 a 18 horas: Julio, de lunes a viernes, de 9 a 14 horas.;www.madrid.es/puntoslimpios;;;;
;punto limpio de proximidad;;;;Calle  Santander, 2 ;; Polideportivo Vallerhermoso;;Calle;;Santander;número;2;;;07;Chamberí;439838.40;4477151.83;40.4469209420926;-3.66607963982668;Todos los días, 24 horas. Situado en vía pública;www.madrid.es/puntoslimpios;;;;
;punto limpio de proximidad;;;;Calle  Ladera de los Almentdros, 2 ;;Centro Deportivo Municipal  Faustina Valladolid;;Calle;;Ladera de los Almentdros;número;2;;;19;Vicálvaro;447145.03    ;4472806.51;40.4041933336059;-3.62288903886577;De lunes a domingo, de 9 a 20:30 horas. Cerrado festivos, y fines de semana del mes agosto Los días 24, 25 y 31 de diciembre, 1 de enero y 1 de mayo.;www.madrid.es/puntoslimpios;;;;
;punto limpio de proximidad;;;;Bulevar  Indalecio Prieto, 21 ;; Centro Cultural Valdebernardo - Biblioteca Francisco Ayala;;Bulevar;;Indalecio Prieto;número;21;;;19;Vicálvaro;447278.90;4472321.58;40.4471510497998;-3.66819956929463;Todos los días, 24 horas. Situado en vía pública;www.madrid.es/puntoslimpios;;;;
;punto limpio de proximidad;;;;Calle  Pobladura del Valle, 13 ;; Centro Mayores Pablo Casals;;Calle;;Pobladura del Valle;número;13;;;20;San Blas;447403.43;4475213.67;40.425894902589;-3.62004302418122;Lunes a domingo: de 9:30 a 14:00 y de 16:00 a 20:30 h.;www.madrid.es/puntoslimpios;;;;
;punto limpio de proximidad;;;;Plaza  Manuel Becerra, 8 ;; Parque María Eva Duarte de Perón;;Plaza;;Manuel Becerra;número;8;;;04;Salamanca;443276.95;4475564.30;40.4287824491002;-3.66871694523763;De 7:00 a 24:00 horas;www.madrid.es/puntoslimpios;;;;
;punto limpio de proximidad;;;;Calle  Francos Rodriguez, 67 ;; Biblioteca Municipal Manuel Vázquez Montalbán;;Calle;;Francos Rodriguez;número;67;;;06;Tetuán;439755.53;4478780.64;40.4575090131827;-3.71053360560639;De lunes a viernes de 9:30 a 14:00 y de 15:30 a 20:00  horas. Verano: del 15 de junio al 15 de septiembre de lunes a viernes de 8:30 a 20 horas. Cerrado festivos y los días 24 y 31 de diciembre.;www.madrid.es/puntoslimpios;;;;
;punto limpio de proximidad;;;;Calle  Jose del Hierro, 5 ;;Centro Deportivo Municipal  Concepción;;Calle;;Jose del Hierro;número;5;;;15;Ciudad Lineal;445003.98;4476493.24;40.437266819585;-3.64843835536981;De lunes a viernes, de 8:30 a 14:30 y de 14:45 a 21:00 horas. Sábados, domingos y festivos: de 8:30 a 15:00 horas. Cerrado Días 24, 25 y 31 de diciembre, 1 de enero y 1 de mayo;www.madrid.es/puntoslimpios;;;;
;punto limpio de proximidad;;;;Plaza  Navío, 4 ;;Centro Integrado Teresa de Calcuta;;Plaza;;Navío;número;4;;;21;Barajas;450174,67;4478461,15;40.4553208665291;-3.58763018046765;Todos los días, 24 horas. Situado en vía pública;www.madrid.es/puntoslimpios;;;;
;punto limpio de proximidad;;;;Calle  Pedro Justo Dorado Dellmans, 10 ;;Parque Almansa;;Calle;;Pedro Justo Dorado Dellmans;número;10;;;09;Moncloa-Aravaca;439545,43;4477766,66;40.4483594217018;-3.71291483451281;Todos los días, 24 horas. Situado en vía pública;www.madrid.es/puntoslimpios;;;;
;punto limpio de proximidad;;;;Avenida  Pio XII, 2 ;;Centro Deportivo Municipal  Chamartin;;Avenida;;Pio XII;número;2;;;5;Chamartin;442666.41;4479162;40.461150401004;-3.67623896173565;Lunes a viernes de 7 a 22,45 horas, sábados de 8 a 20,45 horas, domingos y festivos de 8 a 14,45 horas. Cerrado Días 25 de diciembre, 1 de enero y 1 de mayo.;www.madrid.es/puntoslimpios;;;;
;punto limpio de proximidad;;;;Calle  Encomienda de Palacios, 190 ;;Centro Deportivo Municipal   Nicanor Barroso;;Calle;;Encomienda de Palacios;número;190;;;14;Moratalaz;445516.96;4472229.25;40.3988880776292;-3.64202510282292;De 8,15 a 18 horas de Lunes a Viernes.;www.madrid.es/puntoslimpios;;;;
;punto limpio de proximidad;;;;Avenida  Valladolid, 37 ;;Vía Pública;;Avenida;;Valladolid;número;37;;;09;Moncloa;438152,4;4475471,99;40.427585672253;-3.72911764167352;Todos los días, 24 horas. Situado en vía pública;www.madrid.es/puntoslimpios;;;;
;punto limpio de proximidad;;;;Paseo  Imperial, 20 ;;Centro Deportivo Municipal  Marqués de Samaranch;;Paseo;;Imperial;número;20;;;02;Arganzuela;439132,79;4473248,47;40.4076275279002;-3.71734797159274;De lunes a viernes, de 9:00 a 22:00 horas. Sábados y domingos, de 9:00 a 21:00 horas;www.madrid.es/puntoslimpios;;;;
;punto limpio de proximidad;;;;Calle  Pez Austral, 6 ;;Centro Municipal de Mayores La Estrella;;Calle;;Pez Austral;número;6;;;03;Retiro;443472,86;4473849,45;40.4133474985405;-3.66625505299277;De lunes a viernes: de 9 a 21 horas. Fines de semana: de 10 a 14 horas y de 16 a 21 horas;www.madrid.es/puntoslimpios;;;;
;punto limpio de proximidad;;;;Glorieta  Pradera de Vaquerizas, 9 ;;Centro Cultural Alfredo Kraus;;Glorieta;;Pradera de Vaquerizas;número;9;;;08;Fuencarral;438847,13;4482486,68;40.4908279573918;-3.72160395242089;De lunes a viernes de 9 a 14 y de 16 a 21.30 h ;www.madrid.es/puntoslimpios;;;;
;punto limpio de proximidad;;;;Calle  Benimamet, 137 ;;Vía Pública (CD Raul Gonzalez);;Calle;;Benimamet;número;137;;;17;Villaverde;441882,48;4466411,18;40.3462298262965;-3.68432039911783;Todos los días, 24 horas. Situado en vía pública;www.madrid.es/puntoslimpios;;;;
;punto limpio de proximidad;;;;Avenida  General Perón, 30 ;;Vía Pública;;Avenida;;General Perón;número;30;;;06;Tetuan;441104,86;4478171,95;40.4521223947971;-3.69456403253084;Todos los días, 24 horas. Situado en vía pública;www.madrid.es/puntoslimpios;;;;
;punto limpio de proximidad;;;;Avenida  Niza, 8 ;;Centro Deportivo Pepu Hernández;;Avenida;;Niza;número;8;;;20;San Blas;448569,64;4475399,24;40.4276395457054;-3.60631072242836;De lunes a viernes, de 8 a 23 horas. Sábados, de 9 a 22 horas. Domingos y festivos, de 9 a 15 horas. ;www.madrid.es/puntoslimpios;;;;
;punto limpio de proximidad;;;;Avenida  Peseta, 59 esquina Calle Salvador Allende;esquina Calle Salvador Allende;Vía Pública (Metro La Peseta);;Avenida;;Peseta;número;59;;;11;Carabanchel;435636,57;4468290,49;40.3627010416286;-3.75804831393895;De lunes a viernes, de 8 a 23 horas. Sábados, de 9 a 22 horas.;www.madrid.es/puntoslimpios;;;;
;punto limpio de proximidad;;;;Calle  Bacares, 24 esquina Calle Velez Rubio;esquina Calle Velez Rubio;Vía Pública;;Calle;;Bacares;número;24;;;16;Hortaleza;443829,3;4480884,7;40.4767487123401;-3.66267629602687;Todos los días, 24 horas. Situado en vía pública;www.madrid.es/puntoslimpios;;;;
;punto limpio de proximidad;;;;Calle  Rayo Vallecano de Madrid, 2 ;;Ciudad Deportiva Rayo Vallecano;;Calle;;Rayo Vallecano de Madrid;número;2;;;18;Villa De Vallecas;448050,5;4469738,79;40.3766142210645;-3.61196856029871;De lunes a viernes, de 8 a 23 horas. Sábados, de 9 a 22 horas. Domingos y festivos, de 9 a 15 horas. ;www.madrid.es/puntoslimpios;;;;
;punto limpio de proximidad;;;;Calle  Antonia Merced, 3 ;;Vía Pública;;Calle;;Antonia Merced;número;3;;;04;Salamanca;442860,56;4474994,99;40.4236253155009;-3.6735743465285;Todos los días, 24 horas. Situado en vía pública;www.madrid.es/puntoslimpios;;;;
;punto limpio de proximidad;;;;Avenida  Las Fuerzas Armadas, 10 ;;Parque Forestal Valdebebas (entrada 6 - Acceso Plaza del Reloj);;Avenida;;Las Fuerzas Armadas;número;10;;;16;Hortaleza;445957,91;4481824,77;40.4853585719818;-3.63764555790457;Todos los días, 24 horas. Situado en vía pública;www.madrid.es/puntoslimpios;;;;
;punto limpio de proximidad;;;;Calle  Padre Damián, 26 ;;Instalación Deportiva Municipal Básica Padre Damián ;;Calle;;Padre Damián;número;26;;;05;Chamartin;441827,77;4478668,02;40.4566421232014;-3.68608462380591;De lunes a viernes, de 9:00 a 22:00 horas. Sábados y domingos, de 9:00 a 21:00 horas;www.madrid.es/puntoslimpios;;;;
;punto limpio de proximidad;;;;Calle  Medina De Pomar, 1 esquina Calle Salinas del Rosio;esquina Calle Salinas del Rosio;Vía Pública;;Calle;;Medina De Pomar;número;1;;;21;Barajas;450425,9;4477949,72;40.4507286089313;-3.58462743811829;Todos los días, 24 horas. Situado en vía pública;www.madrid.es/puntoslimpios;;;;
;punto limpio de proximidad;;;;Plaza  Don Antonio de Andrés, 15 ;;Vía Pública (Junta Municipal de Distrito de Vicalvaro);;Plaza;;Don Antonio de Andrés;número;15;;;19;Vicalvaro;448613,49;4472588,75;40.4023235332521;-3.60556677584141;Todos los días, 24 horas. Situado en vía pública;www.madrid.es/puntoslimpios;;;;
;punto limpio de proximidad;;;;Camino  Perales, 90 frente ;frente ;Parque Lineal del Manzanares (Puerta Principal);;Camino;;Perales;número;90;;;12;Usera;441443,89;4469915,38;40.377767;-3.689806;Todos los días, 24 horas.;www.madrid.es/puntoslimpios;;;;
;punto limpio de proximidad;;;;Avenida  Gran Vía de San Francisco, 21 frente, esquina Calle Calatrava;frente, esquina Calle Calatrava;Via publica (Frente al Parque Dalieda de San Francisco);;Avenida;;Gran Vía de San Francisco;número;21;;;01;Centro;439426,2556;4473509,455;40.410000;-3.71391444371133;Todos los días, 24 horas. Situado en vía pública;www.madrid.es/puntoslimpios;;;;
;punto limpio de proximidad;;;;Paseo  Ciudad de Plasencia, s/n (fla 17);(fla 17);Parque Atenas;;Paseo;;Ciudad de Plasencia;número;s/n;;;01;Centro;438994,2419;4474054,56;40.414879;-3.719058;Todos los días, 24 horas.;www.madrid.es/puntoslimpios;;;;
;punto limpio de proximidad;;;;Paseo  Lanceros, 2 ;;Jardines del Teniente Coronel Vesteiro;;Paseo;;Lanceros;número;2;;;10;Latina;432654,3042;4470153,43;40.37924753149876;-3.7933659947249554;Todos los días, 24 horas. Situado en vía pública;www.madrid.es/puntoslimpios;;;;
;punto limpio de proximidad;;;;Avenida  Los Andes, 46 ;;Vía Pública;;Avenida;;Los Andes;número;46;;;16;Hortaleza;447512,28;4478527,18;40.4557518230652;-3.61903365091868;Todos los días, 24 horas. Situado en vía pública;www.madrid.es/puntoslimpios;;;;
;;;;;;;;;;;;;;;;;;;;;;;;;;;
;;;;;;;;;;;;;;;;;;;;;;;;;;;
;;;;;;;;;;;;;;;;;;;;;;;;;;;
;;;;;;;;;;;;;;;;;;;;;;;;;;;
;;;;;;;;;;;;;;;;;;;;;;;;;;;
;;;;;;;;;;;;;;;;;;;;;;;;;;;
;;;;;;;;;;;;;;;;;;;;;;;;;;;
