idPlas,Bin,Place,lon,lat,levelOfFullnes,alarm,date
1522423,envases,Estacion Cercanias Asamblea De Madrid,-3.66818481961283,40.3818872494024,6,,2021-10-06T17:09:58Z
1522705,envases,José Del Hierro N° 52,-3.64392377324389,40.4401409362563,8,LLENA,2021-10-06T17:18:19Z
1522709,envases,Av. Moratalaz N°134,-3.6469082689571,40.4067884727658,0,,2021-10-06T18:00:33Z
1522710,envases,Alcalá CV Av. Institución Libre Enseñanza,-3.63826355079394,40.4377219407492,6,ERROR,2021-10-06T16:44:43Z
1522889,envases,San Cipriano (Cercanías Vicalvaro/Metro Puerta De Arganda),-3.595912,40.401426,0,,2021-10-06T17:04:57Z
1522985,envases,Glorieta Alsacia (Metro Alsacia),-3.62309602206998,40.4176270530662,0,,2021-10-06T17:57:37Z
1522992,envases,Av. Marqués De Corbera N°54-56 (Metro La Elipa),-3.6509436229678,40.4262409799852,0,,2021-10-06T17:05:14Z
1522996,envases,José Del Hierro N°39,-3.64429644965743,40.4402083463916,8,ERROR,2021-10-06T18:01:56Z
1522999,envases,José Del Hierro N°55,-3.64287415896386,40.4408141980418,0,,2021-10-06T16:37:21Z
1523001,envases,Santillana Del Mar (Metro Alto Del Arenal),-3.64543874048201,40.3902181569538,0,,2021-10-06T17:18:12Z
1522998,envases,P° Polideportivo (Centro Deportivo),-3.60316528125706,40.408918104979,0,,2021-10-06T17:14:56Z
1523004,envases,Ascao N°4-6 (Biblioteca Pablo Neruda),-3.64171514922409,40.4296165687567,0,,2021-10-06T15:09:04Z
1523007,envases,Bahía De Gando SN (Centro Comercial),-3.59281879862065,40.4651602440617,0,,2021-10-06T17:39:15Z
1523010,envases,Virgen De La Alegría N°8-10,-3.6570799489743,40.4335217835916,0,,2021-10-06T16:19:32Z
1523113,envases,Alcala Farola 151 (Metro Banco De España),-3.69581469960621,40.419087659414,0,,2021-10-06T17:54:27Z
1523114,envases,Gran Via 28,-3.70171086319735,40.4201063289955,4,,2021-10-06T16:57:04Z
1523115,envases,Gran Vía 31,-3.70388373243074,40.4200919286318,4,,2021-10-06T17:45:49Z
1523118,envases,Pz Colón Fla.58,-3.68846425727559,40.4243310693949,4,,2021-10-06T16:45:45Z
1523119,envases,Doctor Esquerdo (Salida Metro Conde De Casal),-3.67062426151177,40.4069290766972,0,,2021-10-06T16:34:56Z
1523123,envases,Sevilla 2 CV Plaza de Canalejas,-3.70027083136325,40.4167527374316,2,,2021-10-06T18:03:59Z
1523129,envases,Peña Gorbea Esq. Monte Igueldo,-3.66808683245111,40.396002854883,0,,2021-10-06T17:23:56Z
1523132,envases,Pz Manuel Becerra 8,-3.66874610939457,40.4286455798854,4,,2021-10-06T17:09:30Z
1523140,envases,Av. Mendez Pelayo Entrada Retiro Frente A Ibiza,-3.6790075878557,40.4182168482129,2,,2021-10-06T17:23:49Z
1523139,envases,Puerta De Alcala (Tramo Entrada Del Retiro),-3.68806797544639,40.4196872814412,6,,2021-10-06T17:41:46Z
1523144,envases,Gran Via 61,-3.70949321138065,40.4224240050095,6,,2021-10-06T17:46:10Z
1523147,envases,Peña Gorbea Esq. Puerto Alto,-3.666155781875,40.3954061637155,6,,2021-10-06T17:02:50Z
1523158,envases,Alcalá 237 (Pz Toros) Ventas Derecha Entrada Principal,-3.66259392414195,40.4314995116468,2,,2021-10-06T17:44:04Z
1523159,envases,Plaza Guardia De Cors FTE. Conde Duque,-3.71056955739891,40.4271815515398,2,,2021-10-06T16:34:58Z
1523164,envases,Plaza Cibeles CV Paseo Recoletos,-3.69304677937484,40.4198444071696,0,,2021-10-06T17:56:03Z
1523175,envases,Puerta Del Sol (Metro/Cercanias),-3.702893552936,40.4168867002944,8,LLENA,2021-10-06T16:27:53Z
1523184,envases,Peña Prieta Esq. Monte Oliveti,-3.66848754509938,40.3987962538023,0,,2021-10-06T17:29:49Z
1523186,envases,Pz Manuel Becerra 14,-3.66801222973401,40.4280848985274,0,,2021-10-06T17:53:36Z
1523187,envases,Alcalá 237 (Pz Toros) Ventas Izquierda Entrada Principal,-3.66296203359661,40.4313436567362,2,,2021-10-06T16:30:18Z
1523188,envases,Av. De La Peseta CV Salvador Allende (Metro La Peseta),-3.75740686523756,40.3631245010636,4,,2021-10-06T17:03:11Z
1523202,envases,Gran Via 16,-3.69933503546156,40.4197214636817,0,,2021-10-06T16:41:53Z
1523213,envases,Av. América 9,-3.67669733168759,40.4381255618405,0,,2021-10-06T12:11:04Z
1523228,envases,Goya 39,-3.68334267911807,40.4252362529295,4,,2021-10-06T16:29:01Z
1523243,envases,Av. Ensanche De Vallecas CV Alto De La Sartenilla (Metro La Gavia),-3.61236223801415,40.3693323400467,0,,2021-10-06T17:42:50Z
1523248,envases,Plaza Del Carmen CV Tres Cruces,-3.7031898907344,40.4190521140737,2,,2021-10-06T17:12:25Z
1523252,envases,Av. Complutense FTE. Salida Parking Peatones,-3.72725406826131,40.4434542520456,0,,2021-10-06T17:46:51Z
1523254,envases,Plaza Cristo Rey CV Doctor Jimenez Diaz,-3.71816892923682,40.4395586625089,0,,2021-10-06T17:27:18Z
1523259,envases,Bulevar Indalecio Prieto Centro De Salud Valdebernardo,-3.621743,40.400161,0,,2021-10-06T17:41:06Z
1523261,envases,Gran Vía 41,-3.70658180050997,40.4205688857356,6,,2021-10-06T17:57:27Z
1523267,envases,Sierra Guadalupe FTE. N°21 (Metrro/Cercanias),-3.62454556875927,40.3818411775911,0,,2021-10-06T17:57:20Z
1523279,envases,Congosto FTE. N°46,-3.61883198536354,40.3724862589078,6,,2021-10-06T16:30:05Z
1523296,envases,P°Extremadura Cv P° Ermita Del Santo,-3.72389039068123,40.4139191584492,6,,2021-10-06T17:03:18Z
1523308,envases,Príncipe De Vergara 144,-3.67802999973699,40.4461017516396,6,,2021-10-06T17:38:58Z
1523319,envases,Plaza Del Emperador Carlos V(Salida Arriba E.A.),-3.69261436517504,40.4077857321349,2,,2021-10-06T16:37:49Z
1523356,envases,Gran Vía 57,-3.70846100547568,40.4217694691489,0,,2021-10-06T16:36:36Z
1523359,envases,Marqués De Zafra FTE. 28,-3.6647482853625,40.4261219074163,6,,2021-10-06T17:28:22Z
1523464,envases,Av. Mendez Pelayo Entrada Retiro Con O'Donnel,-3.68007268592213,40.4213972575303,6,,2021-10-06T17:07:52Z
1523473,envases,Goya 70,-3.67622795077083,40.4247115508988,2,,2021-10-06T17:42:01Z
1523479,envases,Plaza Daoiz Y Velarde (Zona Próxima A La Junta De Distrito),-3.67778329876717,40.4020002650054,6,,2021-10-06T16:50:01Z
1523481,envases,Pendiente Reubicar. Serrano 24,-3.6880263932861,40.4238301312766,0,,2021-10-06T16:50:55Z
1523485,envases,Alcala 237 (Pz Toros) Metro,-3.66331440762209,40.4310150760707,0,,2021-10-06T17:27:38Z
1523496,envases,Av Mendez Pelayo Frente Av. De Nazaret,-3.67652666142213,40.4112896060483,4,,2021-10-06T17:11:39Z
1523504,envases,Pz Colon FTE. Fla.37,-3.68959544677065,40.4246145366083,4,,2021-10-06T12:42:34Z
1523502,envases,Méndez Alvaro 1,-3.69175569459813,40.4061497280022,0,,2021-10-06T16:58:47Z
1523512,envases,Plaza De Colón Entrada Parking,-3.689389,40.424887,2,,2021-10-06T08:32:56Z
1523513,envases,Goya 87,-3.67661998964659,40.4249273605609,4,,2021-10-06T17:45:22Z
1523530,envases,Av. Marqués De Corbera N°1-3,-3.65619895887839,40.4228384094205,4,,2021-10-06T16:39:28Z
1523533,envases,Plaza De Santa Ana FTE.10,-3.70093432867288,40.4146749950325,0,,2021-10-06T16:40:38Z
1523535,envases,Carmen Gourmet Experience FTE. Fnac,-3.70512021440114,40.4192590572037,0,,2021-10-06T17:21:38Z
1523538,envases,Pz Independencia 2,-3.68930675623681,40.4203954166634,0,,2021-10-06T16:53:24Z
1523541,envases,Gran Vía 29 CV Chinchilla,-3.70335465849152,40.4200498592029,4,,2021-10-06T16:30:47Z
1523542,envases,Bailen Entre Flas. 305-307,-3.71361772229366,40.4134535979978,0,,2021-10-06T17:35:20Z
1523545,envases,Preciados Fnac FTE. Nº21,-3.70542221594836,40.4192095418109,0,,2021-10-06T17:59:25Z
1523548,envases,Plaza Isabel II (Frente Calle Arrieta Junto Fla.25),-3.70936725851189,40.4182632306511,4,,2021-10-06T17:24:04Z
1523554,envases,Felipe II FTE. Wizink Center,-3.67268740007132,40.423890581277,0,,2021-10-06T17:03:27Z
1523555,envases,"Puerta Del Sol (Entre Carmen Y Preciados, Sephora)",-3.70372331303361,40.4170909246988,6,,2021-10-06T17:34:25Z
1523574,envases,Felipe II 13,-3.67386408616392,40.4241304359349,2,,2021-10-06T17:54:55Z
1523578,envases,Gran Vía 35 CV Abada,-3.70476071702486,40.4201497529004,8,LLENA,2021-10-06T17:30:50Z
1523585,envases,Carretas 1,-3.70324339154775,40.4165540869867,0,,2021-10-06T17:22:49Z
1523589,envases,Felipe II 13,-3.67387963236483,40.4241255777361,4,,2021-10-06T16:37:53Z
1523587,envases,Gran Vía 51,-3.70774805939208,40.4212959146471,4,,2021-10-06T17:37:13Z
1523598,envases,Bailen Entre Flas. 272-270,-3.71368187396077,40.4143601793962,4,,2021-10-06T18:01:18Z
1523602,envases,Av. De Las Suertes C.C La Gavia,-3.59932384504268,40.3671992334631,2,,2021-10-06T17:43:34Z
1523605,envases,P° De La Florida Iglesia San Antonio De La Florida,-3.72614175274009,40.4255373832062,2,,2021-10-06T16:38:31Z
1523796,envases,Goya 59,-3.68088517393104,40.4251520070213,0,,2021-10-06T17:59:39Z
1523799,envases,Doctor Arce (Plaza Iglesia Santa Gema),-3.68068308839632,40.4475269272924,4,,2021-10-06T17:29:54Z
1523800,envases,Fuente Carrantona N°8,-3.63739829268984,40.3988060678942,2,,2021-10-06T16:27:35Z
1523802,envases,Puente De Segovia CV Marqués De Monistrol,-3.72404942352152,40.4141364904096,0,,2021-10-06T18:00:29Z
1523803,envases,Plaza De La Encarnación Fla.4,-3.71120175513642,40.419597824902,0,,2021-10-06T17:56:58Z
1523811,envases,P° Extremadura CV Pz Puerta De Ángel,-3.72850084075309,40.413822862133,0,,2021-10-06T17:57:03Z
1523815,envases,Plaza De Oriente FTE. Felipe V Fla. 39,-3.71140410214714,40.4184873207375,0,,2021-10-06T17:13:46Z
1523806,envases,Cañada Del Santisimo CV Av. Ensanche De Vallecas (Metro Las Suertes),-3.59963218340019,40.3631346588285,2,,2021-10-06T16:32:52Z
1523825,envases,Plaza De La Prosperidad,-3.67488019440709,40.4442161118617,4,,2021-10-06T17:53:36Z
1523824,envases,Plaza Don Antonio De San Andrés N°17 (Junta Municipal Vicalvaro),-3.60578086198483,40.4022361442429,6,,2021-10-06T17:40:37Z
1523826,envases,P° Federico Garcia Lorca N°3,-3.62115400368012,40.3794529587686,0,,2021-10-06T16:59:27Z
1523828,envases,Av. Complutense FTE. Instalaciones Deportivas,-3.72924551608432,40.4507606503007,0,,2021-10-06T17:52:38Z
1523827,envases,Paseo Del Prado CV Felipe IV,-3.69307944520803,40.415063657265,2,,2021-10-06T17:24:00Z
1523830,envases,Conde De Casal (Darsena Autobuses Salida Carrtera De Valencia),-3.66842867919339,40.40641471575,4,,2021-10-06T17:38:30Z
1523831,envases,O'Donnel (Frente Hospital Materno Infantil),-3.67186004533856,40.4212362650344,0,,2021-10-06T17:03:10Z
1523836,envases,Av. Complutense Metro Ciudad Universitaria,-3.72704843755763,40.4435219625293,6,,2021-10-06T17:26:44Z
1523841,envases,Bulevar Indalecio Prieto CV Raya (Metro Veldebernardo),-3.62126329664231,40.4009901715751,6,,2021-10-06T16:45:53Z
1523844,envases,Av. De Mendez Pelayo (Entrada/Salida Retiro Mariano De Cavia),-3.67851371743189,40.4082842962322,2,,2021-10-06T17:39:58Z
1523846,envases,Pz Manuel Becerra 4,-3.66952158350497,40.4282096515482,0,,2021-10-06T17:00:15Z
1523850,envases,Felipe II .Puerta Corte Ingles. Envases,-3.67478476426758,40.4241882328296,2,,2021-10-06T16:34:54Z
1523854,envases,Intercambiador Aluche Junto Fla.82,-3.75986563397125,40.3853351637445,4,,2021-10-06T16:48:02Z
1523852,envases,Av. América 1,-3.67710468702761,40.4376833950959,6,,2021-10-06T16:25:59Z
1523859,envases,Preciados Stradivarius,-3.70462159979362,40.4180255794458,6,,2021-10-06T16:53:40Z
1523862,envases,Av. Mendez Pelayo,-3.68098489504504,40.4044222628177,6,,2021-10-06T17:21:52Z
1523865,envases,Serrano 54,-3.68725724414116,40.4279998128514,2,,2021-10-06T18:03:02Z
1523867,envases,Plaza Callao 5 Fla.4,-3.70561798958344,40.4197387082842,6,,2021-10-06T17:06:48Z
1523870,envases,Pendiente de reubicar.Plaza De España FTE. N°18,-3.7120200917929,40.4241291302376,4,,2021-10-06T16:32:25Z
1523875,envases,O'Donnel Zona Comercial,-3.67394225962683,40.4213341735085,6,,2021-10-06T17:06:02Z
1523874,envases,Reina Cristina,-3.6852107554538,40.4063325162703,4,,2021-10-06T17:39:11Z
1523877,envases,Toledo N°13,-3.70750694726256,40.4144794276346,4,,2021-10-06T17:49:40Z
1523883,envases,Av. Mendez Pelayo Entrada Retiro Frente Sainz De Baranda,-3.67858161933338,40.4171041297854,0,,2021-10-06T17:12:00Z
1523885,envases,Pavia N 2-4,-3.71158290994641,40.4191041799278,6,,2021-10-06T17:09:19Z
1523887,envases,Fernández De Los Ríos CV Isaac Peral,-3.71874821873332,40.4356590069327,0,,2021-10-06T17:34:40Z
1523889,envases,Príncipe De Vergara 154,-3.6777052517914,40.4485599940555,0,ERROR,2021-10-06T18:03:36Z
1523890,envases,Carretas 13,-3.70321609053505,40.4160286591465,2,,2021-10-06T18:00:10Z
1523893,envases,Doctor Esquerdo (Salida Metro Pacífico),-3.67436840738173,40.4015342547449,4,,2021-10-06T17:52:27Z
1523899,envases,Plaza Isabel II (Frente Calle Independencia),-3.70994612999318,40.4179380449031,0,,2021-10-06T17:36:39Z
1523900,envases,Av. Complutense Entrada Facultad Ciencia De La Información,-3.72768510621544,40.4455253005098,6,,2021-10-06T17:52:12Z
1523924,envases,Av. De Las Águilas Junto Fla. 26 (Salida Renfe Fanjul),-3.7686511517764,40.3836669396326,0,,2021-10-06T17:45:07Z
1523930,envases,P° Alberto Palacios N°31 CV Oasis,-3.71241007595026,40.3454093711829,0,,2021-10-06T16:57:28Z
1523917,envases,Av. Rafael Alberti Esq. Torremolinos,-3.64202583500325,40.3850933309559,0,,2021-10-06T16:23:14Z
1523934,envases,P° Extremadura N°158 (Salida Metro Alto Extremadura),-3.73902114084988,40.4099071027657,0,,2021-10-06T16:58:37Z
1523918,envases,Arroyo Belincoso N°26,-3.65254716651522,40.4099328797817,6,,2021-10-06T17:35:42Z
1523941,envases,Fuente Carrantona N°10,-3.63697093605797,40.399444860108,0,,2021-10-06T17:33:33Z
1523938,envases,Fuente De Lima FTE. N°1 (Metro Aviación Española),-3.78384334122892,40.3837039758846,4,,2021-10-06T14:40:13Z
1523944,envases,Mateo Inurria CV P°Habana (Pares),-3.67947,40.467538,6,,2021-10-06T17:21:26Z
1523943,envases,Plaza Cardenal Cisneros CV Av. Complutense,-3.7262568179772,40.4402235449418,2,,2021-10-06T16:32:10Z
1523959,envases,Av. De Portugal N°155,-3.73816968828044,40.411106153408,0,,2021-10-06T17:02:57Z
1523951,envases,Bulevar Indalecio Prieto CV Parra,-3.62115573657648,40.400821509158,0,,2021-10-06T17:01:35Z
1523931,envases,Francos Rodríguez CV Pirineos,-3.71584477888803,40.4585547770263,0,,2021-10-06T11:47:33Z
1523952,envases,Camino De Ganapanes Junto Fla. 58,-3.71615268556367,40.4760976271508,0,,2021-10-06T17:50:56Z
1523961,envases,Bolivia CV Colombia,-3.67779256895734,40.4572288584638,0,,2021-10-06T12:31:21Z
1523956,envases,Plaza De Santa Ana Fla.42,-3.70034713758862,40.4147381446378,2,,2021-10-06T16:46:57Z
1523958,envases,Puerta Del Sol CV Preciados,-3.70415665469908,40.4170763672934,0,,2021-10-06T17:45:23Z
1523920,envases,Pz Manuel Becerra 20,-3.66925538328594,40.427629583032,0,,2021-10-06T17:00:53Z
1524018,envases,San Cipriano N°44 (Metro San Cipriano),-3.60410598334786,40.4039349217123,0,,2021-10-06T16:37:34Z
1524022,envases,Av. Pablo Neruda Esq. Romeo Y Julieta,-3.66209399562324,40.3813037507794,0,,2021-10-06T17:22:55Z
1524023,envases,San Cipriano CV Jardin De La Duquesa,-3.60450290632782,40.4040389202839,0,,2021-10-06T17:36:21Z
1524026,envases,P° Alberto Palacios N° 2-4,-3.70935268202131,40.3465514404075,0,,2021-10-06T17:01:29Z
1524027,envases,Martinez De La Riva FTE. N° 116,-3.66334888247676,40.3833989515504,6,,2021-10-06T17:15:55Z
1524028,envases,Paseo Artilleros CV San Cipriano (Metro Vicalvaro),-3.60885335894082,40.4044689889183,0,,2021-10-06T17:11:47Z
1524030,envases,Av. Carabanchel Alto CV Callejon De La Rosa (Metro Carabanchel Alto),-3.75182849719757,40.371962576103,2,,2021-10-06T17:49:39Z
1524034,envases,Moguer Metro Francos Rodríguez,-3.71283990588031,40.4565556038605,0,,2021-10-06T17:31:00Z
1524039,envases,Arroyo Belincoso N°13,-3.6527802455119,40.4098505194119,6,,2021-10-06T13:10:46Z
1524041,envases,Glorieta Mar De Cristal N°13 (C.C Gran Via),-3.63881368977686,40.4695103218164,0,,2021-10-06T16:24:59Z
1524044,envases,P° Alberto Palacios N°25,-3.71197891146347,40.3459536867836,2,,2021-10-06T17:43:52Z
1524048,envases,Gral. Ricardos N°107,-3.72562384965408,40.3922846590691,0,,2021-10-06T16:46:21Z
1524049,envases,Gerardo Diego (Biblioteca),-3.64330743809541,40.3849862774824,2,,2021-10-06T17:50:26Z
1524056,envases,Av. Dr. Garcia Tapia N°34,-3.65447505942879,40.412345562319,0,,2021-10-06T16:47:50Z
1524057,envases,Hacienda De Pavones N°340,-3.63535499373194,40.400610927567,0,,2021-10-06T17:12:59Z
1524058,envases,P°Castellana 136,-3.69042233686306,40.45133370072,0,,2021-10-06T16:35:30Z
1524061,envases,Cº De Vinateros (Centro De Salud Torito),-3.64632283422514,40.4062184776661,4,,2021-10-06T16:51:41Z
1524065,envases,Av. Córdoba (Hospital 12 De Octubre),-3.69593196601655,40.376622576864,6,,2021-10-06T16:43:40Z
1524069,envases,Av. Pablo Neruda (C.C Madrid Sur),-3.66342659057816,40.3819614855825,4,,2021-10-06T08:56:06Z
1524066,envases,Blas Cabrera CV José De Cadalso,-3.76848497050701,40.3775632062811,0,,2021-10-06T17:04:47Z
1524072,envases,Oliva De Plasencia FTE. N°4,-3.7791351511256,40.3785400635284,6,,2021-10-06T16:37:52Z
1524076,envases,Bulevar Indalecio Prieto Biblioteca,-3.621367511698,40.3997776995225,6,,2021-10-06T07:38:53Z
1524077,envases,Mendez Álvaro FTE. Vips,-3.67796419888296,40.3931280562018,0,,2021-10-06T17:33:06Z
1524079,envases,Hacienda De Pavones Entre Fla.1-2 (Carrefour),-3.65066003779765,40.4055026234065,2,,2021-10-06T09:36:56Z
1524082,envases,Centro Civico El Pozo Del Tío Raimundo,-3.6600852109436,40.3741308628868,0,,2021-10-06T17:47:31Z
1524081,envases,Marroquina Posterior N°11 (Galeria Efe),-3.65061125431808,40.4076127014687,0,,2021-10-06T13:14:25Z
1524083,envases,Gral. Ricardos N°104 CV El Toboso,-3.72504621945577,40.3927828913518,0,,2021-10-06T17:39:07Z
1524088,envases,Alcala FTE.22 FLA. SN CV Virgen De Los Peligros,-3.69901132958498,40.4180932921282,0,,2021-10-06T16:21:27Z
1524096,envases,Carretas FTE. Cadiz,-3.70327451720382,40.4157994740472,0,,2021-10-06T17:20:43Z
1524094,envases,Av. De Portugal CV Turismundo,-3.73545103846239,40.4121611858158,0,,2021-10-06T13:59:44Z
1524097,envases,Fuencarral 16,-3.70111169939404,40.4214034716622,2,,2021-10-06T17:09:59Z
1524103,envases,Gran Via 2,-3.6972361303695,40.4191203519685,0,,2021-10-06T16:43:58Z
1524107,envases,P° Del Prado CV Atocha,-3.69269292069502,40.4095169845428,0,,2021-10-06T16:42:35Z
1524109,envases,Princesa  Cv Alberto Aguilera,-3.71590872911543,40.4302874223885,0,,2021-10-06T17:59:02Z
1524112,envases,Plaza De Armeria Entre Palacio Y Catedral,-3.71500190274931,40.4162857575504,6,,2021-10-06T16:43:15Z
1524116,envases,Gran Via 24 CV Hortaleza,-3.70106103786865,40.4200739215623,4,,2021-10-06T17:35:36Z
1524120,envases,Arenal 2 FTE.1 (Local Coimbra),-3.70480990100815,40.4169162583737,0,,2021-10-06T16:52:34Z
1524122,envases,Gran Vía 13,-3.69983088318854,40.4197178669105,8,LLENA,2021-10-06T11:05:23Z
1524121,envases,Príncipe De Vergara CV Concha Espina,-3.67770930050076,40.4519137566296,0,,2021-10-06T10:05:58Z
1524126,envases,Alcala CV P° Prado (Banco España),-3.69395703683781,40.419044000082,2,,2021-10-06T17:24:44Z
1524128,envases,Plaza Pedro Zerolo Frente N°2 Fla.18,-3.69962309511914,40.4210943388534,2,,2021-10-06T17:57:50Z
1524127,envases,Gran Vía 21 CV Montera,-3.70118987841714,40.419942038901,0,,2021-10-06T17:23:18Z
1524130,envases,Gran Vía 54 Junto Kiosko,-3.70716336818894,40.4211558776396,0,,2021-10-06T17:09:37Z
1524131,envases,Fuencarral CV Barceló FTE. Palma,-3.70116234981462,40.4260889686218,6,,2021-10-06T16:32:30Z
1524132,envases,Serrano 47,-3.68724633992509,40.429380006891,0,,2021-10-06T16:26:35Z
1524136,envases,Plaza Dos De Mayo,-3.703766500626,40.4268108830068,6,ERROR,2021-10-06T17:06:50Z
1524134,envases,Fuencarral FTE. 42,-3.70074955837471,40.4229472896978,0,,2021-10-06T16:30:35Z
1524139,envases,Gran Via 38 CV Concepción Arenal,-3.70465726750589,40.4203231984102,2,,2021-10-06T16:58:18Z
1524145,envases,Gran Vía 23,-3.70179968597482,40.4199502578259,0,,2021-10-06T16:59:00Z
1524155,envases,Bailen Plaza De Armeria Entre Palacio Y Catedral,-3.71352483712248,40.4162060012807,0,,2021-10-06T17:01:15Z
1524157,envases,Gran Vía 27,-3.70280612556066,40.4200108849301,2,,2021-10-06T17:03:44Z
1524164,envases,Alcala N° 31,-3.698286,40.418349,0,,2021-10-06T16:35:51Z
1524165,envases,Plaza Sta. Soledad Torres Acosta CV Concepcion Arenal,-3.70481686400911,40.4211691236081,0,,2021-10-06T16:43:42Z
1524167,envases,Alcala CV Gran Vía,-3.69711764309205,40.4187450462036,0,,2021-10-06T17:52:31Z
1524170,envases,Plaza Pedro Zerolo CV Infantas,-3.69913932497899,40.4206086178249,0,,2021-10-06T17:09:07Z
1524171,envases,Gran Via 8 CV Víctor Hugo,-3.69831060728891,40.4194285087873,6,,2021-10-06T16:45:02Z
1524174,envases,Gran Via 20,-3.70011686773879,40.4199276848027,0,,2021-10-06T17:36:45Z
1524175,envases,Sevilla 3 CV Plaza Canalejas,-3.70028157360144,40.4167359876183,4,,2021-10-06T17:49:15Z
1524179,envases,Javier De Miguel (Centro De Mayores),-3.66349915307006,40.3887214696277,4,,2021-10-06T17:48:18Z
1524043,envases,Av. Albufera Esq. Av. Rafael Alberti (Metro Miguel Hernández),-3.64000023223922,40.387623245808,0,,2021-10-06T17:15:12Z
1524277,envases,P°Extremadura N°31 CV Antillon,-3.72853539644465,40.4134847630745,4,,2021-10-06T16:52:19Z
1524279,envases,Av. Albufera Esq. Payaso Fofo,-3.65873328531235,40.3927154611884,0,,2021-10-06T16:37:06Z
1524282,envases,C° De Vinateros FTE. N°45,-3.65524562590565,40.410529025317,6,,2021-10-06T17:09:38Z
1524283,envases,Arenal 24 (Burger King),-3.70793347169304,40.4176719357802,4,,2021-10-06T17:47:54Z
1524284,envases,Peña Prieta FTE. N°2,-3.66898294590824,40.3984632094679,0,,2021-10-06T17:21:23Z
1524285,envases,Av. De Los Poblados CV Av. De Las Águilas,-3.76240252413869,40.3858440609876,0,,2021-10-06T07:27:06Z
1524286,envases,Puerta De Toledo (Salida Metro),-3.71082390472015,40.4068216541988,0,,2021-10-06T17:08:26Z
1524288,envases,Av. Albufera N°12 (Metro Puente De Vallecas),-3.66823124020573,40.3976806956694,0,,2021-10-06T17:12:19Z
1524291,envases,Plaza Cristo Rey,-3.71798186386929,40.4392761715233,2,,2021-10-06T17:52:12Z
1524297,envases,Princesa CV Paseo Moret,-3.71941676063026,40.4346885907754,2,,2021-10-06T16:58:42Z
1524309,envases,Juan José Martinez Seco (Media Markt),-3.69202369408286,40.3516066815492,2,,2021-10-06T17:11:41Z
1524311,envases,Peña Prieta N°2,-3.66889276163793,40.3983669394361,4,,2021-10-06T18:03:57Z
1524320,envases,Higueras CV Cebreros (Metro Lucero),-3.74502649842159,40.4048517333995,8,LLENA,2021-10-06T17:32:54Z
1524322,envases,C° De Vinateros CV Arroyo Belincoso (Metro Vinateros,-3.65288122722818,40.4102968837046,0,,2021-10-06T17:32:30Z
1524333,envases,Bulevar José Prat C.C Valdebernardo,-3.61875069748183,40.3973776802203,6,,2021-10-06T17:42:10Z
1524338,envases,Av. Albufera (Metro Alto Del Arenal),-3.64566226629037,40.3896882018639,0,,2021-10-06T16:24:37Z
1524335,envases,Sierra De Guadalupe (Metro),-3.62501564553889,40.3821991125399,2,,2021-10-06T16:25:48Z
1524342,envases,Av. Buenos Aires Esq. Av. Albufera (Metro Buenos Aires),-3.6539412867004,40.3914389789913,4,,2021-10-06T17:09:49Z
1524354,envases,Monte Ulla CV Antonia Calas,-3.66920778653075,40.3979074543878,2,,2021-10-06T17:41:07Z
1524360,envases,Alejandro Casona CV Doctor Reinosa,-3.73129274866068,40.4806822965801,2,,2021-10-06T16:58:19Z
1524369,envases,Sta. Marta FTE. N°19,-3.6616549654336,40.4029980626621,2,,2021-10-06T16:56:40Z
1524389,envases,Juan José Martinez Seco CV María Martínez Oviol,-3.69167509280897,40.3516409465949,0,,2021-10-06T16:26:36Z
1524398,envases,Dr. Lozano FTE. N°17,-3.66127264542745,40.4031998810343,6,,2021-10-06T17:36:45Z
1524400,envases,P°Castellana 220 Darsena,-3.68859468004674,40.4677188322298,6,,2021-10-06T17:37:27Z
1524401,envases,Paseo Del Prado (Plaza De La Lealtad),-3.69347474986033,40.4163721753529,0,,2021-10-06T16:33:16Z
1524405,envases,P° Castellana 280 Semiesq. Manuel Caldeiro,-3.68617125046599,40.4763146751345,0,,2021-10-06T16:46:05Z
1524413,envases,Gral. Ricardos N°12 CV Vicente Parra,-3.71748533861492,40.3969597352792,2,,2021-10-06T17:50:06Z
1524417,envases,Av. Albufera N°9 (Carrefour),-3.66809522086985,40.3977982808107,0,,2021-10-06T16:42:04Z
1524415,envases,Av. Albufera N°42 (Junta Municipal Vallecas),-3.66630660556788,40.3967088869012,0,,2021-10-06T16:21:29Z
1524420,envases,Hacienda De Pavones N°215,-3.62925379967527,40.3992274932313,0,,2021-10-06T17:08:54Z
1524419,envases,Plaza Isabel II ( Salida Metro A Calle Arenal),-3.70933670180575,40.41802624618,0,,2021-10-06T17:23:29Z
1524421,envases,Villardondiego Biblioteca Municipal,-3.60833131166976,40.4055336568686,0,,2021-10-06T16:48:45Z
1524436,envases,Villablanca (Centro  De Salud),-3.59947140096857,40.4055489438924,0,,2021-10-06T17:30:58Z
1524438,envases,P° Estación FTE. N°1,-3.68456781085365,40.3526688815153,6,,2021-10-06T16:52:39Z
1524446,envases,Puerto Balbaran Jto. Canchas De Futbol,-3.65988676022507,40.3772700941481,0,,2021-10-06T17:29:57Z
1524447,envases,Arenal 16 (Al Lado Del Hotel Frente Joy Eslava),-3.70649114545194,40.417269153336,0,,2021-10-06T17:22:14Z
1524456,envases,Montera 33,-3.70223887234756,40.4188463459565,0,,2021-10-06T17:36:44Z
1524461,envases,Pendiente de reubicar.Plaza Santo Domingo Fla.43 (Dentro De Plaza),-3.70843858564937,40.4200039213232,0,,2021-10-06T17:34:03Z
1524459,envases,Gran Vía73,-3.71064790712469,40.4231576302164,0,,2021-10-06T16:44:39Z
1524462,envases,Requena Frente Fla.13 CV Plaza De Oriente,-3.71293451280203,40.4171959670274,2,,2021-10-06T17:28:24Z
1524464,envases,Plaza Rey,-3.69621153558084,40.4203056458343,6,,2021-10-06T17:53:35Z
1524467,envases,Av. De La Peseta N°8 (Mcdonalds),-3.76546643036228,40.3682117695777,2,,2021-10-06T16:48:28Z
1524443,envases,Av. De Los Andes N°50 (Eci Campo De Las Naciones),-3.618278,40.456734,0,,2021-10-06T17:44:36Z
1524449,envases,Plaza De Oriente (Frente Palacio Fla. 155),-3.71297183843087,40.41876585,4,,2021-10-06T17:03:11Z
1524482,envases,Pz Independendia 5,-3.6882594355716,40.4204540969079,0,,2021-10-06T17:40:33Z
1524481,envases,Pz Cibeles 4,-3.69222938066988,40.419664053027,2,,2021-10-06T16:57:07Z
1524489,envases,Plaza Armeria Entre Palacio Y Catedral Junto Fla.4,-3.71370191826108,40.4164785227476,0,,2021-10-06T17:55:03Z
1524310,envases,Plaza Antón Martín N°48,-3.69957533831789,40.4124349863091,2,,2021-10-06T16:42:19Z
1524674,envases,Blas Cabrera N°90,-3.76455178861467,40.3782745783256,6,,2021-10-06T17:22:05Z
1524677,envases,Av. San Diego (Centro De Salud),-3.66410371619031,40.3825118004754,0,,2021-10-06T16:59:06Z
1524668,envases,Manuel Machado N°14 Alcampo,-3.65954178346868,40.4118704320203,0,,2021-10-06T17:07:43Z
1524675,envases,Av. Pio XII (Salida Metro Fla.20),-3.6759765109068,40.4625320281851,8,LLENA,2021-10-06T17:15:36Z
1524688,envases,P° De La Florida CV Mozart,-3.72496335273522,40.4246045808058,4,,2021-10-06T17:55:27Z
1524700,envases,P°Extremadura N°113-115,-3.73558740190028,40.4109378780392,4,,2021-10-06T16:31:51Z
1524701,envases,Pz Santa Cristina Nº4,-3.72714502611182,40.413890988284,6,,2021-10-06T17:47:04Z
1524699,envases,Antonio Machado Junto Fla.58,-3.71916664329222,40.4659217015011,0,,2021-10-06T16:37:19Z
1524707,envases,Serrano 201 Fla.311,-3.68096393385534,40.4526068265511,4,,2021-10-06T16:28:47Z
1524708,envases,Pza. Mercurio FTE. Junta Municipal De Barajas,-3.57796150286256,40.4745195733555,0,,2021-10-06T17:21:09Z
1524714,envases,Av. De Guadalajara Junto Fla. 16-18 (C.C Las Rosas),-3.62121398853633,40.419041122556,0,,2021-10-06T17:28:45Z
1524717,envases,C° Viejo De Leganes N°97 CV Valle Del Oro,-3.72704062532812,40.3875437783454,0,,2021-10-06T17:58:00Z
1524719,envases,Aquitania Junto Fla.7 (C.C Las Rosas),-3.62053657763099,40.4179530473519,0,,2021-10-06T17:13:31Z
1524727,envases,Bustamante Con Juanmartin El Empecinado,-3.68825510627438,40.4005045606781,0,,2021-10-06T17:47:43Z
1524729,envases,Alcalá FTE. Canillejas A Vicalvaro (Metro Torre Arias),-3.61710204049797,40.443747873078,0,ERROR,2021-10-06T17:21:48Z
1524734,envases,Plaza Mayor De Barajas N°16,-3.57698645662995,40.4736508440886,6,,2021-10-06T16:35:59Z
1524742,envases,Senda Del Infante CV María De Maeztu,-3.72469188087754,40.4931423563396,2,,2021-10-06T17:47:55Z
1524745,envases,Finisterre N°46 FTE. Fla.59,-3.70289468114275,40.4804437434587,0,,2021-10-06T17:56:00Z
1524740,envases,María Tudor N°37,-3.65821878052589,40.4978854931198,2,,2021-10-06T18:02:15Z
1524755,envases,Alcalá CV Josefa Valcarcel (Metro Canillejas),-3.60927826232674,40.4490321948506,0,,2021-10-06T17:26:04Z
1524763,envases,Av. Monforte De Lemos Entra Vaguada,-3.70630754332284,40.4791216491759,4,,2021-10-06T17:36:44Z
1524737,envases,Pza. Agata FTE. N°4,-3.70829737556214,40.3463314583286,0,,2021-10-06T17:25:25Z
1524736,envases,Esteban Mora Mercado San Pascual,-3.65426850677414,40.4386645845771,0,,2021-10-06T16:47:28Z
1524769,envases,Arroyo Bueno N° 53 CV Vado De Santiago,-3.71139498017123,40.3491603431408,6,,2021-10-06T16:35:35Z
1524771,envases,Plaza Mayor De Barajas N°10,-3.57769973494232,40.4740227029301,0,,2021-10-06T16:58:20Z
1524778,envases,Fuente De La Mora N°3 (Metro Ligero),-3.66330229031167,40.4855290709064,4,,2021-10-06T16:59:04Z
1524781,envases,Plaza Liceo N°3,-3.64415960942667,40.4568807680307,6,,2021-10-06T17:08:52Z
1524784,envases,Glorieta Pilar Miro (Junta Municipal Hortaleza),-3.65747209884183,40.4632603117149,0,,2021-10-06T16:27:25Z
1524789,envases,Plaza De Armeria Entre Palacio Y Catedral,-3.71498772887112,40.4165671155248,0,,2021-10-06T17:51:39Z
1524788,envases,Institución Libre De Enseñanza N°89,-3.62728227907828,40.4235095545289,0,,2021-10-06T17:53:49Z
1524799,envases,Plaza Callao (Junto Salida Metro),-3.7057681373235,40.4200053557011,4,,2021-10-06T17:20:32Z
1524801,envases,Plaza Ángel 6 Junto Fla.20,-3.70185265436127,40.4143667002365,2,,2021-10-06T17:18:33Z
1524802,envases,Plaza De Oriente FTE. Carlos III FLA.48,-3.71145887221054,40.4180615030766,2,,2021-10-06T16:45:20Z
1524804,envases,Mayor 4,-3.70507936134359,40.4165407572671,6,,2021-10-06T17:50:28Z
1524803,envases,Plaza Ana Diosdado (Teatro),-3.70068132185616,40.4082735866454,0,,2021-10-06T17:53:23Z
1524805,envases,Carmen CV Galdo FTE. Banco Santander,-3.70405967694757,40.4181964546662,6,,2021-10-06T17:48:42Z
1524809,envases,Plaza De Oriente Fla.185 (Frente Palacio),-3.71313106804122,40.4174123735563,0,,2021-10-06T16:56:07Z
1524811,envases,Jacometrezo 1,-3.70621523094875,40.4201110817377,0,,2021-10-06T16:48:16Z
1524812,envases,Alcalá 18,-3.69931426174956,40.4177648166,2,,2021-10-06T17:02:05Z
1524819,envases,Marques Viudo De Pontejos FTE.1 CV Plaza Marques De Pontejos,-3.70447030483115,40.4157520155949,0,,2021-10-06T16:41:19Z
1524823,envases,Plaza Cibeles,-3.69348583737984,40.4187899895189,6,,2021-10-06T16:59:59Z
1524831,envases,Paseo Infanta Isabel 13 Boca De Metro (Frente Hotel Only You),-3.68821237156725,40.4070441717591,0,,2021-10-06T17:34:54Z
1524835,envases,Gran Vía 56 CV San Bernardo,-3.70782223158647,40.4216029515078,0,,2021-10-06T16:53:12Z
1524842,envases,Avenida Ciudad De Barcelona(Salida Cercanía Frente Al Monumento),-3.6885731389511,40.4064082822192,0,,2021-10-06T16:56:44Z
1524856,envases,Montera 24,-3.70235593483496,40.4184070441662,6,,2021-10-06T17:38:21Z
1524858,envases,Fuencarral 6 Fla. 6,-3.70143042725259,40.4205655403031,0,,2021-10-06T16:53:12Z
1524860,envases,"Pza Santa María De La Cabeza, 2 (Burger King)",-3.69351829883703,40.4071438786159,6,,2021-10-06T17:16:03Z
1524840,envases,Plaza Carlos V N.11,-3.69250763207674,40.4090204297013,0,,2021-10-06T18:02:25Z
1524861,envases,Gran Vía 66 Junto Semáforo,-3.70894510820282,40.4222795813509,0,,2021-10-06T16:38:04Z
1524863,envases,Gran Vía CV Caballero De Gracia,-3.69763499216314,40.4190875538753,2,,2021-10-06T16:44:50Z
1524837,envases,Calle Botoneras 7,-3.706759,40.41476,0,,2021-10-06T17:55:02Z
1524866,envases,Toledo N°7,-3.70758882566148,40.4148531595681,0,,2021-10-06T17:41:54Z
1524836,envases,Plaza De La Corrala Junto Fuente,-3.70283243736075,40.4079756849946,0,,2021-10-06T17:16:12Z
1524855,envases,Gran Vía 7,-3.69872670743345,40.4194039451764,0,,2021-10-06T16:50:42Z
1524872,envases,Plaza De Santa Cruz,-3.705536,40.415124,0,,2021-10-06T17:26:07Z
1524873,envases,Gran Vía 78,-3.71036119081656,40.4231790571686,6,,2021-10-06T12:12:52Z
1524876,envases,Gran Via 30,-3.70285231526084,40.4201786515197,6,,2021-10-06T17:59:37Z
1524878,envases,Av. Europa Puerta Carrefour Express,-3.78800288378053,40.4455535531892,0,,2021-10-06T17:36:23Z
1524871,envases,Glorieta De Quevedo 7/ Bravo Murillo (Al Lado Cabina),-3.704199429624,40.4338428231642,0,,2021-10-06T17:50:56Z
1524839,envases,Plaza Canal De Isabel II 3 FTE. Fla.7,-3.7016828726852,40.4578929758355,4,,2021-10-06T18:01:35Z
1524850,envases,Plaza De Cuzco Salida Metro Cuzco,-3.6904475834963,40.4583283317663,8,LLENA,2021-10-06T17:09:44Z
1524879,envases,Pza. Agata,-3.70887104843709,40.3466711932805,6,,2021-10-06T16:42:31Z
1524880,envases,Gral. Ricardos N°4,-3.71661604231256,40.397452583336,4,,2021-10-06T16:20:33Z
1524881,envases,Bravo Murillo 28 (Cines Verdi),-3.7041566597964,40.4366308644811,4,,2021-10-06T17:34:17Z
1524886,envases,Ombu 16 (Salida Cercanías),-3.6776120732449,40.3954763337328,0,,2021-10-06T16:40:59Z
1524891,envases,Pza. Hidrógeno N°7 CV Isabelita Usera N°37,-3.7076920999524,40.3830484501956,0,,2021-10-06T17:27:32Z
1524887,envases,Pza. Goytisolo Frente Al 5,-3.69398822082196,40.4088751659312,6,,2021-10-06T17:18:09Z
1524898,envases,Glorieta Cuatro Caminos FTE. Fla. 109,-3.70411245660713,40.4473788965226,0,,2021-10-06T17:25:34Z
1524896,envases,Cmo. De Perales FTE. Calle Torrox (Caja Magica),-3.68613516925793,40.3688881733474,0,,2021-10-06T18:03:39Z
1524897,envases,Plaza Chueca N°5,-3.69768812946707,40.4227343278363,0,,2021-10-06T17:04:36Z
1524900,envases,Av. Rafael Ybarra N°43,-3.71111988182589,40.3820632307511,0,,2021-10-06T17:29:58Z
1524904,envases,Gran Via 34 Junto Semáforo,-3.70408827433348,40.4202664773987,4,,2021-10-06T16:32:35Z
1524908,envases,Marcelo Usera N°72 CV Los Ferroviarios,-3.70509320439576,40.3859604732775,2,,2021-10-06T13:29:27Z
1524909,envases,Glorieta De Bilbao (Metro Bilbao),-3.70190188984652,40.4292710583115,0,,2021-10-06T16:31:53Z
1524911,envases,Gran Vía 44 Junto Semáforo,-3.70536482820839,40.4203588090724,2,,2021-10-06T17:05:17Z
1524920,envases,Avenida Ciudad De Barcelona Salida Ave,-3.68942240186552,40.4068239365797,2,,2021-10-06T16:27:25Z
1524916,envases,Costa Brava N°18 ( Metro Paco de Lucia),-3.70898791786746,40.4996824164747,8,LLENA,2021-10-06T17:35:35Z
1524919,envases,Calle Isaac Peral Con Calle Francisco De Sales (FTE. Clinico),-3.71747353915182,40.4396646056501,6,,2021-10-06T15:32:15Z
1524922,envases,Plaza Nelson Mandela Junto Fla. 1 Y 2,-3.70386381153351,40.4096236644057,8,LLENA,2021-10-06T16:40:43Z
1524925,envases,Plaza De Jacinto Benavente,-3.70368545024851,40.4146069527361,0,,2021-10-06T17:33:28Z
1524931,envases,Glorieta Pradera Navarrulaque CV Mirador De La Reina,-3.71648935495155,40.4907986770193,8,LLENA,2021-10-06T16:54:08Z
1524930,envases,Plaza De Lavapies N°8 Codere,-3.7011952165307,40.4086649660954,2,,2021-10-06T17:33:04Z
1524932,envases,Plaza Tirso De Molina,-3.70334715058558,40.4124407064563,4,,2021-10-06T17:35:17Z
1524936,envases,Plaza Tirso De Molina,-3.70467527247131,40.4124087833044,6,,2021-10-06T17:20:06Z
1524933,envases,Plaza Tirso De Molina,-3.70507376107181,40.4123443788605,4,,2021-10-06T17:54:15Z
1524938,envases,Gran Via 32 Primark,-3.70342351490522,40.4202228507414,4,,2021-10-06T16:51:35Z
1524935,envases,Plaza De Legazpi Con Maestro Arbos (Parada Bus,-3.69532812727828,40.3905447060258,0,,2021-10-06T17:01:23Z
1524939,envases,Plaza De Castilla 3 (Esquina Bravo Murillo),-3.69023122511755,40.4658922617431,0,,2021-10-06T17:18:01Z
1524942,envases,Raimundo Fernandez Villaverdecon Paseo Castellana (Metro),-3.69172711118517,40.4459907955724,0,,2021-10-06T16:52:17Z
1524943,envases,Plaza De La Remonta FTE. 2B Fla. 45,-3.6979510375574,40.4644830650874,0,,2021-10-06T17:38:23Z
1524945,envases,Av. De Partenon Glorieta (Entrada Ifema),-3.61606651293898,40.4642120305998,0,,2021-10-06T17:04:03Z
1524946,envases,Glorieta San Vicente CV P° De La Florida,-3.72008372660329,40.4205243992535,0,,2021-10-06T18:00:13Z
1524950,envases,Plaza Manuel Gomez Moreno (Orense 6 Post.),-3.694512,40.44834,10,LLENA,2021-10-06T18:00:46Z
1524955,envases,Av Betanzos N°39 Junto Fla.57,-3.71124468038385,40.4749492328847,8,LLENA,2021-10-06T16:31:31Z
1524956,envases,Plaza De Las Provincias 4 CV Gerona,-3.70630078349046,40.4149945196305,0,,2021-10-06T17:14:20Z
1524953,envases,Sinesio Delgado Puerta Carrefour,-3.70945399927963,40.4716303156031,10,LLENA,2021-10-06T16:40:46Z
1524952,envases,Plaza De Castilla FTE. Taco bell (Jto. Farola385) CV P° Castellana 189 Metro,-3.68948513362475,40.4672493719319,8,ERROR,2021-10-06T17:30:02Z
1524958,envases,P° Alberto Palacios N°17,-3.71115726866163,40.346031443683,0,,2021-10-06T12:37:44Z
1524959,envases,Antonio López N°111 (Plaza Rio 2),-3.70185237186912,40.3904283337441,6,,2021-10-06T17:35:15Z
1524962,envases,La Estrada CV Francisco Sancha,-3.69360958103587,40.4882412731842,0,,2021-10-06T17:36:29Z
1524968,envases,Plaza Olavide FTE. Murillo,-3.700819,40.433085,6,,2021-10-06T16:13:31Z
1524970,envases,Ginzo De Limia 54 CV Av. Monforte De Lemos,-3.703914,40.478998,0,,2021-10-06T16:56:24Z
1524969,envases,P° Alberto Palacios N°3-5,-3.70973332825626,40.3463083537883,0,,2021-10-06T17:09:47Z
1524972,envases,Senda Del Infante Fla.23,-3.72016989840325,40.4890119240213,6,,2021-10-06T17:07:22Z
1524971,envases,Av. Monforte De Lemos CV Av. Betanzos,-3.71192984904922,40.4776122875244,0,,2021-10-06T16:54:11Z
1524978,envases,Av. Real De Pinto N°27,-3.70613059714624,40.3463517162405,4,,2021-10-06T17:07:52Z
1524977,envases,Plaza De Lima Fla.2 FTE. Edificio Bankia,-3.69135994574567,40.4517881382847,4,,2021-10-06T16:49:05Z
1524981,envases,Gral. Ricardos N° 93 CV C° Viejos De Leganes,-3.72369223544967,40.3932740632457,2,,2021-10-06T17:49:18Z
1524984,envases,Pza. Distrito De Latina (Guareña FTE. N°3),-3.76493376493548,40.385574676882,0,,2021-10-06T17:36:46Z
1524982,envases,Plaza De La Remonta 6 Fla. 64,-3.69719689055796,40.4642873920556,6,,2021-10-06T17:42:29Z
1524989,envases,Av. Córdoba CV Marcelo Usera,-3.69923333377633,40.3874203097546,0,,2021-10-06T17:53:24Z
1524992,envases,Raimundo Fernández Villaverde (Fla.80) Intercambiador,-3.69233369489969,40.4464221782527,0,,2021-10-06T17:11:54Z
1524993,envases,Golondrina Estradaestacion Aravaca,-3.78516297878445,40.4483414616689,0,,2021-10-06T16:55:22Z
1524999,envases,Transversal Sexta Cercanias San Cristóbal Industrial,-3.69915004127758,40.3317777442977,0,,2021-10-06T16:54:17Z
1525001,envases,Glorieta Rocio Durcal Metro Francos Rodríguez,-3.71176054164643,40.4572799103738,0,,2021-10-06T11:21:04Z
1525005,envases,Plaza De Moncloa CV Princesa,-3.71925642773307,40.4350113794462,4,,2021-10-06T17:50:12Z
1525012,envases,Golondrina Estrada Estacion Aravaca,-3.78517396103422,40.4487489869679,6,,2021-10-06T16:33:06Z
1525015,envases,Plaza Chamberí N°41 Junto Fla. 27 CV Santa Engracia,-3.69769904762506,40.4322994883608,6,,2021-10-06T16:35:50Z
1525017,envases,Plaza Nelson Mandela Junto Fla.14 Y Arbol,-3.70337845411988,40.409729114994,0,,2021-10-06T17:16:03Z
1525016,envases,Marcelo Usera / Pza. Julian Marias,-3.70743506918362,40.3855933875761,0,,2021-10-06T17:28:50Z
1525020,envases,Av. Complutense Entrada Real Jardines Alfonso XIII,-3.72760406914115,40.4480116158331,2,,2021-10-06T16:54:25Z
1525022,envases,Fuencarral 129 (FTE. Local Natura),-3.70341868465573,40.4311952375822,4,,2021-10-06T16:35:32Z
1525023,envases,Plaza Andrés Segovia,-3.6778589222932,40.445455002038,8,LLENA,2021-10-06T17:23:26Z
1525025,envases,Glorieta De Las Academias CV Santiago De Compostela,-3.70583218723425,40.4820919910625,0,,2021-10-06T16:30:25Z
1525026,envases,Santa Engracia CV Cuatro Caminos (Isleta Ascensor Metro),-3.70386681189128,40.4464126362435,4,,2021-10-06T16:51:17Z
1525029,envases,Francos Rodríguez Junto Fla. 103,-3.71217770646738,40.457482333857,0,,2021-10-06T16:51:11Z
1525028,envases,Orense Esq. Raimundo Fernández Villaverde,-3.69541009439178,40.4465801012416,0,,2021-10-06T17:21:04Z
1525032,envases,Blas Cabrera Junto Fla. 65 (Mercado Las Águilas),-3.76802791499191,40.3776615885428,2,,2021-10-06T16:58:11Z
1525034,envases,Santa Engracia CV Cuatro Caminos (Metro Lateral),-3.70359514560762,40.4465406232475,6,,2021-10-06T17:18:13Z
1525039,envases,Orense Entre N°14 Y N°16,-3.69515572112029,40.4492965916002,8,LLENA,2021-10-06T16:40:07Z
1525042,envases,Fernández De Los Ríos CV Isaac Peral (Junta Distrito),-3.7185968291596,40.4355038192461,0,,2021-10-06T16:48:18Z
1524906,envases,Pza. José Luis Hoys Mercado Usera,-3.7067963245738,40.3871325214308,0,,2021-10-06T16:28:31Z
1525040,envases,Pza. Del Navío (Centro Servicios Sociales Y Mayores),-3.58798462473729,40.4554830127712,0,,2021-10-06T17:18:27Z
1525068,envases,Av. Complutense Entrada Parque De Las Ciencias,-3.72734219586271,40.4500572278672,0,,2021-10-06T17:41:00Z
1525071,envases,Encomienda De Palacios N°380,-3.63289453711837,40.3961350844044,0,,2021-10-06T17:27:50Z
1525074,envases,Mayor N°9,-3.705905411041,40.4163545592793,0,,2021-10-06T17:45:48Z
1525073,envases,P°Castellana 274 CV Padre F° Palau Y Quer,-3.68661582836028,40.474301447286,2,,2021-10-06T17:14:06Z
1525076,envases,Plaza Ramales CV Santiago,-3.71154618000155,40.4168943510938,6,,2021-10-06T17:11:31Z
1525077,envases,Arequina N°1,-3.6415502054428,40.4691114006121,4,,2021-10-06T16:52:21Z
1525079,envases,Oca N°57 CV Abolengo,-3.7386289019445,40.3890912233318,2,,2021-10-06T17:10:09Z
1525082,envases,Felipe V (Local Mi Favorita Fitnest Ballet),-3.7106500621045,40.4185917430472,0,,2021-10-06T17:39:44Z
1525088,envases,Mayor CV Esparteros,-3.70513933729958,40.4164605389433,2,,2021-10-06T16:35:17Z
1525090,envases,P° De La Estacion FTE. Fuente De La Capona,-3.68453631657609,40.3536772580684,2,,2021-10-06T17:59:57Z
1525092,envases,Ginzo De Limia N°29,-3.70402355655713,40.4779443691408,2,,2021-10-06T17:39:38Z
1525102,envases,Pza. Cristina Arce Y Rocío Oña,-3.58723895223785,40.4551376003661,0,,2021-10-06T17:43:38Z
1525104,envases,Manizales (C.C Colombia),-3.63704665272068,40.4720296552404,0,,2021-10-06T16:56:19Z
1525112,envases,Dulce Chacon (Cercanías Fuente De La Mora),-3.66318431767719,40.4846442321576,6,,2021-10-06T17:56:20Z
1525119,envases,Av. Monasterio De Silos Junto Fla. 79 (Metro Montecarmelo,-3.69579203180187,40.5053194176158,4,,2021-10-06T17:57:58Z
1525121,envases,Arturo Soria N°126-128 (Arturosoriaplaza),-3.65117317329059,40.4496875997185,6,,2021-10-06T17:24:51Z
1525149,envases,María Tudor N°20 (Metro Ligero),-3.65918250021269,40.4969754169136,0,,2021-10-06T17:29:45Z
1525148,envases,Santa Engracia Con Calle María De Guzman,-3.70263798888435,40.4441749919478,6,,2021-10-06T16:57:56Z
1525153,envases,Acanto 2 (Cines Cinesa),-3.6751152041408,40.3966845558416,0,,2021-10-06T17:16:27Z
1525154,envases,Av. De Las Águilas N°27,-3.76851838008406,40.3835008416563,4,,2021-10-06T17:41:00Z
1525155,envases,Jordan CV Olavide,-3.70159814674152,40.4330196674004,0,,2021-10-06T16:44:46Z
1525159,envases,Intermedia Sur CV Transversal Sexta,-3.699344,40.333152,6,,2021-10-06T17:57:19Z
1525158,envases,Plaza Manuel Gomez Moreno FTE. N°6 (Entrada Por Orense),-3.69479676795078,40.447768456331,2,,2021-10-06T16:36:15Z
1525162,envases,P° De La Florida Estacion Príncipe Pio,-3.720491,40.421155,6,,2021-10-06T17:21:41Z
1525164,envases,Intercambiador Aluche Junto Fla. 84,-3.76050343716552,40.3849495861678,8,LLENA,2021-10-06T17:47:35Z
1525172,envases,Paseo De Las Delicias Con Plaza Luca De Tena (Junto Semaforo Y Parque Infantil),-3.69372791391682,40.401667874722,0,,2021-10-06T17:44:00Z
1525167,envases,Glorieta Ruiz Gimenez 3 (Metro San Benardo),-3.70598537624559,40.429892219972,4,,2021-10-06T16:50:02Z
1525168,envases,C° Viejo De Leganes N°179 CV Carrero Juan Ramon,-3.7313157249693,40.3809531566211,4,,2021-10-06T17:35:32Z
1525169,envases,Paseo De Las Delicias 78 (Salida Metro),-3.69439780406434,40.3985120670334,4,,2021-10-06T18:00:18Z
1525178,envases,Av. Pablo Iglesias 96 (Metro Francos Rodriguez),-3.7115666173066,40.4572370071767,0,,2021-10-06T16:50:12Z
1525176,envases,Plaza De Legazpi 1 (Salida Metro),-3.6949327350625,40.3915809943305,0,,2021-10-06T17:23:30Z
1525179,envases,Reina Victoria FTE. 2 Boca Metro Mediana,-3.70456270314106,40.4468732061547,6,,2021-10-06T17:49:55Z
1525181,envases,Av. Albufera Esq. Pio Felipe,-3.65404153832652,40.3917530357626,2,,2021-10-06T17:47:41Z
1525186,envases,Plaza Arturo Barea fte. Parque infantil,-3.70339047178032,40.4081129264859,4,,2021-10-06T17:49:34Z
1525188,envases,San Restituto Meteo Valdezarza,-3.71683373733986,40.4651853511123,0,ERROR,2021-10-06T18:00:11Z
1525201,envases,Plaza Rodolfo Y Ernesto Halffter,-3.67767791672608,40.4466151069685,8,ERROR,2021-10-06T16:47:13Z
1525199,envases,P°Castellana CV Av. Monforte De Lemos,-3.68728253283654,40.475249743326,0,,2021-10-06T17:51:24Z
1525196,envases,Francos Rodríguez Entrada Ies Virgen De La Paloma,-3.71594541094447,40.4587746394031,2,,2021-10-06T17:54:00Z
1525198,envases,Av. Alfonso XIII 180 Fla.57 Pz Perú FTE. Jardin De Gloria Fuertes,-3.67633208968557,40.4604907515905,0,,2021-10-06T18:03:48Z
1525197,envases,Sinfonía CV Danza,-3.77359860712065,40.3732456772266,6,,2021-10-06T17:18:21Z
1525205,envases,Mayor CV Coloreros,-3.70692172994683,40.416320937789,0,,2021-10-06T16:46:01Z
1525203,envases,Carmen CV Mesonero De Romanos,-3.70502566689236,40.4190153095776,4,,2021-10-06T18:03:47Z
1525210,envases,Preciados Entrada Principal De El Corte Inglés,-3.70436863552552,40.4174687522307,0,,2021-10-06T16:44:51Z
1525216,envases,Danza CV Av. De La Aviación,-3.77318464551502,40.3741798599463,4,,2021-10-06T17:04:53Z
1525218,envases,Oliva De Plasencia CV Mirabel,-3.77990592473903,40.3784836196488,6,,2021-10-06T17:47:43Z
1525219,envases,Mendez Álvaro N° 40 (Junto Plaza Y Parque Infantil),-3.68458014052154,40.3992876513136,4,,2021-10-06T17:07:31Z
1525223,envases,Pendiente Reubicar. Av. De Las Águilas FTE. N°110,-3.78059580459516,40.3813017220725,0,,2021-10-06T17:36:44Z
1525222,envases,Plaza De Lavapies Junto Árbol,-3.70108472234964,40.4088348748566,0,,2021-10-06T18:04:43Z
1525224,envases,Cebreros FTE. Fla.23 (Metro Lucero),-3.74559853490879,40.4048397036486,0,,2021-10-06T17:02:15Z
1525225,envases,Embajadores 39,-3.70423782762265,40.4078860889249,2,,2021-10-06T17:37:27Z
1525227,envases,Bronce 1 (Salida Meteo Planetario),-3.688753,40.393068,6,,2021-10-06T16:42:50Z
1525229,envases,Av. Monforte De Lemos 101 CV Ginzo De Limia,-3.704469,40.479138,8,LLENA,2021-10-06T17:58:17Z
1525231,envases,Orense 25,-3.695223,40.451321,0,,2021-10-06T17:52:34Z
1525234,envases,Ombu 16 (Salida Cercanías),-3.67760570767326,40.3954632610179,4,,2021-10-06T17:27:38Z
1525235,envases,Padre Piquer (Carrefour),-3.76812938357315,40.3946534807897,0,,2021-10-06T17:43:17Z
1525253,envases,Padre Piquer (Metro Campamento),-3.76835101675369,40.3945411689511,0,,2021-10-06T16:54:55Z
1525254,envases,P° De La Florida  Estación Príncipe Pio Junto Fla.29,-3.72095695995103,40.4218359215093,0,,2021-10-06T16:55:21Z
1525257,envases,Av. Pablo Iglesias CV Juan Montalvo,-3.70903806083506,40.4478866098932,6,,2021-10-06T17:39:42Z
1525531,envases,Gral. Ricardos N°1,-3.71650219393031,40.3973007356077,2,,2021-10-06T16:42:34Z
1525533,envases,Gral. Ricardos N°153 CV Gta. Valle Del Oro,-3.73122111569355,40.3887684135078,0,,2021-10-06T17:19:40Z
1525534,envases,Paseo De La Chopera 14 (Casa Del Reloj/Salida Matadero),-3.69724504495237,40.3925559700667,2,,2021-10-06T17:58:37Z
1525537,envases,Pendiente reubicar.Claudio Moyano,-3.69187159710747,40.4094828578692,6,,2021-10-06T17:05:53Z
1525536,envases,Guatavita N°1 (C.C Colombia),-3.63582852564343,40.4719386341957,0,,2021-10-06T16:47:01Z
1525540,envases,Plaza Conde De Casal N°8,-3.67058271312561,40.4061987281804,2,,2021-10-06T16:29:23Z
1525538,envases,Calderilla N°1 CV Thaler,-3.73783432459163,40.3653121516218,0,,2021-10-06T16:58:28Z
1525543,envases,Ancora 1 Esquina Paseo De Las Delicias,-3.69343158694691,40.4030638379128,8,LLENA,2021-10-06T17:24:55Z
1525548,envases,"Palos De La Frontera (Polideportivo Integrado, Salida Por Palos De La Frontera)",-3.69528291248507,40.4030460733701,0,,2021-10-06T16:41:25Z
1525552,envases,Orense 79,-3.69438616179559,40.4595823651674,0,,2021-10-06T17:11:31Z
1525560,envases,Orense 18,-3.69504613659648,40.4504711909619,0,,2021-10-06T16:59:40Z
1525559,envases,Av. Monforte De Lemos Entrada Vaguada,-3.70608795158177,40.4791670879136,2,,2021-10-06T16:50:40Z
1525563,envases,Plaza Velazquez (Entrada Museo Del Prado),-3.69286764863185,40.4137974210148,0,,2021-10-06T16:43:24Z
1525566,envases,Paseo Acacias 40 (Cercanias),-3.71128918367621,40.4025285493268,0,,2021-10-06T17:30:32Z
1525569,envases,Parroco Eusebio Cuenca (Entrada Museo Del Ferrocarril),-3.689507126497,40.3962729289316,0,,2021-10-06T16:34:57Z
1525581,envases,C° Viejo De Leganes N°128 CV Ángel Ripoll,-3.73011412824549,40.3825411155407,0,,2021-10-06T17:58:42Z
1525580,envases,Avda. Oporto N°53 CV C° Viejo De Leganes,-3.7278083994833,40.3861814556916,0,,2021-10-06T16:53:06Z
1525592,envases,Ramirez De Prado 3 (Biblioteca),-3.69061901375919,40.3996021837325,8,LLENA,2021-10-06T17:18:04Z
1525582,envases,Gran Via Villaverde Acceso Estacion Villaverde Bajo,-3.68367498711786,40.3528052646212,4,,2021-10-06T16:39:54Z
1525585,envases,San Cipriano CV Villardondiego,-3.60811083420481,40.4042488332061,2,,2021-10-06T16:56:01Z
1525594,envases,Av. Europa N°27,-3.7875452523854,40.4452384579143,4,,2021-10-06T17:10:10Z
1525593,envases,Plaza Conde De Casal FTE. 5,-3.66957075132904,40.4067421063048,0,,2021-10-06T16:45:26Z
1525598,envases,Gta. Valle Del Oro FTE. N°4,-3.73080393445442,40.3882418783587,0,,2021-10-06T17:19:19Z
1525600,envases,Plaza Moncloa Intercambiador,-3.71972602579689,40.4347707009229,2,,2021-10-06T17:59:17Z
1525601,envases,Gta. Valle Del Oro FTE. N°3,-3.73103757639442,40.3883715034115,0,,2021-10-06T16:39:02Z
1525607,envases,Av. Monforte De Lemos CV Av. Betanzos,-3.71203064934272,40.4779942377704,8,LLENA,2021-10-06T17:37:46Z
1525609,envases,Hacienda De Pavones N°348,-3.63367689579005,40.400040906813,6,,2021-10-06T17:01:46Z
1525611,envases,José Del Hierro N°10-12,-3.64854462069518,40.4371931195977,0,,2021-10-06T17:01:10Z
1525614,envases,P° Alberto Palacios N°11,-3.71022143845343,40.3462123948646,2,,2021-10-06T17:38:08Z
1525617,envases,Av. Andes N°46 (Mcdonalds),-3.61912346066793,40.4557230617617,2,,2021-10-06T17:55:31Z
1525618,envases,Av. Monforte De Lemos Junto Fla. 174,-3.70746543605703,40.478880376173,2,,2021-10-06T17:08:45Z
1525621,envases,Princesa De Austria CV Pza. Elíptica,-3.71802029570206,40.3847856360413,6,,2021-10-06T17:32:22Z
1525622,envases,Gran Via De Villaverde Acceso Estacion*,-3.68349476980858,40.3528540034839,0,,2021-10-06T16:37:20Z
1525626,envases,Plaza Arturo Barea (Al lado Estatua),-3.70347478140726,40.4084985651001,4,,2021-10-06T16:26:21Z
1525629,envases,Camino De Ganapanes Junto Fla.57,-3.71586572737679,40.4761172822123,4,,2021-10-06T17:12:02Z
1525631,envases,Gral. Ricardos N°131,-3.72824058531542,40.3907356093696,0,,2021-10-06T16:49:59Z
1525632,envases,"Gta. Embajadores 6 (Metro Embajadores, Intercambiador)",-3.70255523741128,40.4045580209714,2,,2021-10-06T16:42:45Z
1525637,envases,Pedro Bosch 77 (Salida Cercanías/Metro),-3.67894037390259,40.3962699494718,0,,2021-10-06T16:36:07Z
1525639,envases,P°Castellana 162,-3.68978517472609,40.458245284144,0,,2021-10-06T17:30:29Z
1525640,envases,Alcalá N°654,-3.60812770270924,40.4491179129352,6,,2021-10-06T17:24:00Z
1525650,envases,Retama 8 (Zona Entra ECI),-3.67462025965834,40.3952781067998,6,,2021-10-06T16:32:24Z
1525656,envases,Castrogeriz N°7 FTE. Avda. Plaza De Toros,-3.73969698683355,40.386562488026,2,,2021-10-06T16:59:52Z
1525665,envases,Av. Complutense Facultad De Derecho,-3.72927392492949,40.4499250086474,6,,2021-10-06T16:36:58Z
1525662,envases,Via Lusitana CV Pza. Elíptica,-3.71816518072047,40.3850731586323,0,,2021-10-06T16:32:58Z
1525670,envases,Extremeños (Biblioteca),-3.64347593482184,40.3844636737862,0,,2021-10-06T17:30:52Z
1525672,envases,Paseo Artilleros Junto Fla.27,-3.6091468076437,40.4048535962903,0,,2021-10-06T17:43:21Z
1525674,envases,Glorieta Reales Academias FTE. P° De La Vaguada,-3.70466500666168,40.4813764501974,8,LLENA,2021-10-06T17:45:28Z
1525676,envases,Gta. Santa M.ª De La Cabeza 8 (Pasillo Verde),-3.6995742470026016,40.4009611375428,0,,2021-10-06T17:56:06Z
1525684,envases,José Del Hierro FTE. Florencio Llorente,-3.6528774805647,40.4350711246593,0,,2021-10-06T17:53:22Z
1525686,envases,Bustamante 1 (Salida Cercanías Delicias),-3.69344062095564,40.4005611986828,0,,2021-10-06T17:25:17Z
1525687,envases,Aquitania CV Hungria (Centro Salud Aquitania),-3.61797928246256,40.4187017725388,2,,2021-10-06T17:23:09Z
1525688,envases,Gta. Valle Del Oro CV Calle Valle Del Oro,-3.73053591436914,40.3883925505399,0,,2021-10-06T18:02:51Z
1525690,envases,Oca N°23-25 (Mercadona),-3.73563621482438,40.3896621175349,6,,2021-10-06T17:31:18Z
1525692,envases,Valdebernardo N°2,-3.63250307067051,40.3987795142116,2,,2021-10-06T17:33:39Z
1525702,envases,Gral. Ricardos N°160 CV Oca,-3.73159773342601,40.3887147822827,4,,2021-10-06T17:53:40Z
1525710,envases,Francos Rodríguez CV Doctor Federico Rubio Y Gali,-3.71291275708252,40.457645848055,0,,2021-10-06T17:16:48Z
1525716,envases,Gral. Ricardos N°53 CV Sallaberry,-3.72091121949129,40.3948670308571,2,,2021-10-06T17:41:54Z
1525720,envases,Valle Del Oro N°31 CV C° Viejo De Leganes,-3.72689060039917,40.3876519863233,0,,2021-10-06T17:13:57Z
1525722,envases,Av. Monforte De Lemos CV Ginzo De Limia (Puerta La Vaguada),-3.70469568361937,40.4795337241761,0,,2021-10-06T17:12:56Z
1525732,envases,Alcalá CV Canillejas A Vicalvaro,-3.6170143956903,40.4435457315142,0,,2021-10-06T18:03:05Z
1525734,envases,Hacienda De Pavones N°356,-3.63550077488472,40.4008616024965,0,,2021-10-06T17:35:21Z
1525736,envases,Av. Cardenal Herrera Oria CV Ventisquero De La Condesa,-3.71463904079936,40.4834404326564,0,,2021-10-06T16:36:41Z
1525738,envases,Paseo Infanta Isabel Cv Alfonso XII,-3.68921525113885,40.4075399568316,4,,2021-10-06T17:30:53Z
1525741,envases,Alberique CV Amposta (Metro Simancas),-3.62294238699103,40.4275671692854,8,LLENA,2021-10-06T17:23:25Z
1525742,envases,José Del Hierro S/N (Parque El Calero),-3.65082362232926,40.4360754933235,4,,2021-10-06T16:53:05Z
1525744,envases,Plaza Carlos Trías Bertrán 4,-3.69424646172014,40.4510569395695,2,,2021-10-06T18:04:23Z
